bundesland,stadt,bhnummer,station,betriebsstelle,kategorie,strasse,plz,port,traeger,abkuerzung,fern,nah,lon,lat
Hessen,Darmstadt,119,Altheim (Hess),FAT,6,Münstererstr. 19,64839,Münster,Rhein-Main-Verkehrsverbund GmbH,RMV,nein,ja,8.89136,49.92272
Hessen,Darmstadt,238,Babenhausen (Hess),FBA,5,Am Bahnhof 1,64832,Babenhausen,Rhein-Main-Verkehrsverbund GmbH,RMV,nein,ja,8.95714,49.95808
Hessen,Darmstadt,3564,Babenhausen Langstadt,FLAS,7,Kleestädter-Str. 75,64832,Babenhausen,Rhein-Main-Verkehrsverbund GmbH,RMV,nein,ja,8.94588,49.92226
Hessen,Darmstadt,292,Bad König,FKI,6,Bahnhofsplatz 1,64732,Bad König,Rhein-Main-Verkehrsverbund GmbH,RMV,nein,ja,9.00186,49.73884
Hessen,Darmstadt,6989,Bad König-Zell,FZK,7,An der alten Schule 5,64732,Bad König,Rhein-Main-Verkehrsverbund GmbH,RMV,nein,ja,8.99413,49.72047
Hessen,Darmstadt,2753,Beerfelden-Hetzbach,FHZ,6,Bahnhofstr. 45,64743,Beerfelden,Rhein-Main-Verkehrsverbund GmbH,RMV,nein,ja,8.9924,49.5948
Hessen,Darmstadt,488,Bensheim,FBH,4,Amershamplatz 1,64625,Bensheim,Verkehrsverbund Rhein-Neckar GmbH,RMV,ja,ja,8.61708,49.68122
Hessen,Darmstadt,489,Bensheim-Auerbach,FBAU,5,Otto-Beck-Str. 32,64625,Bensheim,Verkehrsverbund Rhein-Neckar GmbH,RMV,nein,ja,8.61321,49.70241
Hessen,Darmstadt,614,Biblis,FBL,4,Lindenstr. 2,68647,Biblis,Verkehrsverbund Rhein-Neckar GmbH,RMV,nein,ja,8.45137,49.68909
Hessen,Darmstadt,618,Bickenbach (Bergstr),FBI,5,Bahnhofstr. 77,64404,Bickenbach,Rhein-Main-Verkehrsverbund GmbH,RMV,nein,ja,8.60366,49.75949
Hessen,Darmstadt,619,Biebesheim,FBBM,5,Eisenbahnstr. 8,64585,Biebesheim,Rhein-Main-Verkehrsverbund GmbH,RMV,nein,ja,8.47373,49.78101
Hessen,Darmstadt,721,Bobstadt,FBST,6,Bergstr.45A,68642,Bürstadt,Verkehrsverbund Rhein-Neckar GmbH,RMV,nein,ja,8.45123,49.66327
Hessen,Darmstadt,1002,Bürstadt,FBUP,6,Bahnhofsallee 17,68642,Bürstadt,Verkehrsverbund Rhein-Neckar GmbH,RMV,nein,ja,8.45876,49.64558
Hessen,Darmstadt,7177,Bürstadt (Ried),FBUE,5,Bahnhofsallee 17,68642,Bürstadt,Verkehrsverbund Rhein-Neckar GmbH,RMV,nein,ja,8.45876,49.64558
Hessen,Darmstadt,1126,Darmstadt Hbf,FD,2,Am Hauptbahnhof 20,64293,Darmstadt,Rhein-Main-Verkehrsverbund GmbH,RMV,ja,ja,8.63068,49.87264
Hessen,Darmstadt,1127,Darmstadt Nord,FDN,5,Frankfurter Str. 127,64293,Darmstadt,Rhein-Main-Verkehrsverbund GmbH,RMV,nein,ja,8.65382,49.89186
Hessen,Darmstadt,1128,Darmstadt Ost,FDO,6,Erbacherstr. 87,64287,Darmstadt,Rhein-Main-Verkehrsverbund GmbH,RMV,nein,ja,8.67353,49.87494
Hessen,Darmstadt,1129,Darmstadt Süd,FDS,5,Haardtring 275,64299,Darmstadt,Rhein-Main-Verkehrsverbund GmbH,RMV,nein,ja,8.63683,49.85552
Hessen,Darmstadt,1131,Darmstadt-Eberstadt,FDE,4,An der Eisenbahn 1,64297,Darmstadt,Rhein-Main-Verkehrsverbund GmbH,RMV,nein,ja,8.62653,49.81472
Hessen,Darmstadt,1132,Darmstadt-Kranichstein,FDK,6,Parkstraße 11,64289,Darmstadt,Rhein-Main-Verkehrsverbund GmbH,RMV,nein,ja,8.67885,49.90575
Hessen,Darmstadt,7161,Darmstadt-Lichtwiese,FDAL,6,Petersenstraße 24,64287,Darmstadt,Rhein-Main-Verkehrsverbund GmbH,RMV,nein,ja,8.68379,49.86095
Hessen,Darmstadt,1194,Dieburg,FDI,4,Am Bahnhof 6,64807,Dieburg,Rhein-Main-Verkehrsverbund GmbH,RMV,nein,ja,8.84053,49.90346
Hessen,Darmstadt,945,Dreieich-Buchschlag,FBUS,4,Buchschlager Allee 2,63303,Dreieich,Rhein-Main-Verkehrsverbund GmbH,RMV,nein,ja,8.66315,50.02098
Hessen,Darmstadt,1338,Dreieich-Dreieichenhain,FDCH,6,Bahnstraße 39,63303,Dreieich,Rhein-Main-Verkehrsverbund GmbH,RMV,nein,ja,8.70974,49.99823
Hessen,Darmstadt,2221,Dreieich-Götzenhain,FGOZ,6,Ringwaldstraße 26,63303,Dreieich,Rhein-Main-Verkehrsverbund GmbH,RMV,nein,ja,8.73195,49.99451
Hessen,Darmstadt,4747,Dreieich-Offenthal,FOFF,6,Am Bahnhof 4,63303,Dreieich,Rhein-Main-Verkehrsverbund GmbH,RMV,nein,ja,8.74879,49.98163
Hessen,Darmstadt,5931,Dreieich-Sprendlingen,FSPO,6,Theodor-Heuss-Str. 15,63303,Dreieich,Rhein-Main-Verkehrsverbund GmbH,RMV,nein,ja,8.68827,50.0159
Hessen,Darmstadt,7957,Dreieich-Weibelfeld,FWED,6,Hainer Chausee,63303,Dreieich,Rhein-Main-Verkehrsverbund GmbH,RMV,nein,ja,8.70172,50.0069
Hessen,Darmstadt,1614,Eppertshausen,FER,6,Feldstr. 3,64859,Eppertshausen,Rhein-Main-Verkehrsverbund GmbH,RMV,nein,ja,8.84272,49.94523
Hessen,Darmstadt,1617,Erbach (Odenw),FERO,6,Bahnhofsplatz 10,64711,Erbach ,Rhein-Main-Verkehrsverbund GmbH,RMV,nein,ja,8.99011,49.65665
Hessen,Darmstadt,1618,Erbach (Odenw) Nord,FERN,6,Rudolf-Diesel-Straße,64711,Erbach,Rhein-Main-Verkehrsverbund GmbH,RMV,nein,ja,8.98981,49.66873
Hessen,Darmstadt,2097,Gernsheim,FGHM,5,Bahnhofstr. 6,64579,Gernsheim,Rhein-Main-Verkehrsverbund GmbH,RMV,nein,ja,8.4895,49.75507
Hessen,Darmstadt,2299,Groß Gerau,FGER,5,Sudetenstr. 2,64521,Groß Gerau,Rhein-Main-Verkehrsverbund GmbH,VRN,nein,ja,8.49338,49.91634
Hessen,Darmstadt,2300,Groß Gerau-Dornberg,FDG,3,Darmstädter Str. 94,64521,Groß Gerau-Dornberg,Rhein-Main-Verkehrsverbund GmbH,RMV,nein,ja,7.88305,50.3255
Hessen,Darmstadt,1278,Groß Gerau-Dornheim,FDOH,6,Bahnhofstr. 100,64521,Groß-Gerau,Rhein-Main-Verkehrsverbund GmbH,RMV,nein,ja,8.49338,49.87742
Hessen,Darmstadt,2316,Groß Rohrheim,FGRO,5,Bahnhofstr. 27,68649,Groß Rohrheim,Verkehrsverbund Rhein-Neckar GmbH,RMV,nein,ja,8.47662,49.71418
Hessen,Darmstadt,2320,Groß Umstadt Mitte,FGRU,6,St. Peray-Str. 9,64823,Groß Umstadt,Rhein-Main-Verkehrsverbund GmbH,RMV,nein,ja,8.92461,49.86499
Hessen,Darmstadt,3237,Groß Umstadt-Klein Umstadt,FKLU,6,Bahnhofstr. 102,64823,Groß-Umstadt,Rhein-Main-Verkehrsverbund GmbH,RMV,nein,ja,8.94036,49.89303
Hessen,Darmstadt,6734,Groß Umstadt-Wiebelsbach,FWH,5,Bei den Stochwiesen 26,64823,Groß Umstadt,Rhein-Main-Verkehrsverbund GmbH,RMV,nein,ja,8.94133,49.8322
Hessen,Darmstadt,2471,Hähnlein-Alsbach,FHAE,5,An der Fohlenweide 7,64665,Alsbach-Hähnlein,Rhein-Main-Verkehrsverbund GmbH,RMV,nein,ja,8.60546,49.7395
Hessen,Darmstadt,2482,Hainburg Hainstadt,FHDT,6,Eisenbahnstr. 29,63512,Hainburg,Rhein-Main-Verkehrsverbund GmbH,RMV,nein,ja,8.9395,50.07735
Hessen,Darmstadt,2693,Heppenheim (Bergstr),FHP,5,Kalterer Str. 4,64646,Heppenheim,Verkehrsverbund Rhein-Neckar GmbH,RMV,ja,ja,8.63362,49.64154
Hessen,Darmstadt,2710,Hergershausen,FHER,6,Hügelstraße 3,64832,Babenhausen,Rhein-Main-Verkehrsverbund GmbH,RMV,nein,ja,8.91561,49.93682
Hessen,Darmstadt,3081,Hesseneck-Kailbach,FKAI,6,Bahnhofstr. 9,64754,Hesseneck,Rhein-Main-Verkehrsverbund GmbH,RMV,nein,ja,9.07763,49.53921
Hessen,Darmstadt,5632,Hesseneck-Schöllenbach,FSCH,6,Ecksgasse,64754,Hesseneck,Rhein-Main-Verkehrsverbund GmbH,RMV,nein,ja,9.06828,49.56592
Hessen,Darmstadt,4226,Höchst Mümling-Grumbach,FMGR,6,Im Wolfsgrund 2,64739,Höchst-Odenwald,Rhein-Main-Verkehrsverbund GmbH,RMV,nein,ja,8.98601,49.77197
Hessen,Darmstadt,2807,Höchst (Odenw),FHT,6,Bahnhofstr. 31,64739,Höchst,Rhein-Main-Verkehrsverbund GmbH,RMV,nein,ja,8.98878,49.79453
Hessen,Darmstadt,2749,Höchst-Hetschbach,FHET,7,Talstraße 30,64739,Höchst i. Odw.,Rhein-Main-Verkehrsverbund GmbH,RMV,nein,ja,8.98381,49.80783
Hessen,Darmstadt,2826,Hofheim (Ried),FHOR,6,Bahnhofstr.2,68623,Lampertheim,Verkehrsverbund Rhein-Neckar GmbH,RMV,nein,ja,8.40901,49.65891
Hessen,Darmstadt,3230,Klein Gerau,FKGE,6,Bahnhofstr.9,64572,Büttelborn,Rhein-Main-Verkehrsverbund GmbH,RMV,nein,ja,8.51645,49.91956
Hessen,Darmstadt,3500,Lampertheim,FLP,4,Eugen-Schreiber-Str. 2,68623,Lampertheim,Verkehrsverbund Rhein-Neckar GmbH,VRN,nein,ja,8.47817,49.59809
Hessen,Darmstadt,3524,Langen (Hess),FLG,4,Bahnhofsanlage 2,63225,Langen,Rhein-Main-Verkehrsverbund GmbH,RMV,nein,ja,8.65708,49.99337
Hessen,Darmstadt,3786,Lorsch,FLO,6,Lindenstr. 1,64653,Lorsch,Verkehrsverbund Rhein-Neckar GmbH,RMV,nein,ja,8.56421,49.65751
Hessen,Darmstadt,6995,Mainhausen Zellhausen,FZH,7,Am Bahnhof 9,63533,Mainhausen,Rhein-Main-Verkehrsverbund GmbH,RMV,nein,ja,8.97035,50.01619
Hessen,Darmstadt,4078,Messel,FMES,6,Am Bahnhof 7,64409,Messel,Rhein-Main-Verkehrsverbund GmbH,RMV,nein,ja,8.74607,49.92195
Hessen,Darmstadt,4098,Michelstadt,FMI,6,Hulsterstr. 2,64720,Michelstadt,Rhein-Main-Verkehrsverbund GmbH,RMV,nein,ja,9.00161,49.68425
Hessen,Darmstadt,4174,Mörfelden,FMF,4,Bahnhofstraße 38,64546,Mörfelden - Walldorf,Rhein-Main-Verkehrsverbund GmbH,RMV,nein,ja,8.56593,49.97884
Hessen,Darmstadt,4477,Mühltal,FNR,6,Odenwaldstr.31,64367,Mühltal,Rhein-Main-Verkehrsverbund GmbH,RMV,nein,ja,8.69282,49.83634
Hessen,Darmstadt,4278,Münster (b Dieburg),FMTR,6,Bahnhofsplatz 5,64838,Münster,Rhein-Main-Verkehrsverbund GmbH,RMV,nein,ja,8.85397,49.92368
Hessen,Darmstadt,4308,Nauheim (b Groß Gerau),FNU,6,Bahnhofstr. 39,64569,Nauheim,Rhein-Main-Verkehrsverbund GmbH,RMV,nein,ja,8.45015,49.94216
Hessen,Darmstadt,4614,Ober Ramstadt,FORA,6,Bahnhofstr. 23,64372,Ober Ramstadt,Rhein-Main-Verkehrsverbund GmbH,RMV,nein,ja,8.74327,49.83195
Hessen,Darmstadt,3663,Otzberg-Lengfeld,FLE,6,Bahnhofstraße 15 a,64853,Otzberg,Rhein-Main-Verkehrsverbund GmbH,RMV,nein,ja,8.90294,49.83935
Hessen,Darmstadt,8264,Pfungstadt,FPU,6,Eberstädter Strasse,64319,Pfungstadt,Rhein-Main-Verkehrsverbund GmbH,RMV,nein,nein,8.61123,49.80758
Hessen,Darmstadt,5203,Reinheim (Odenw),FREI,6,Bahnhofstr. 16,64354,Reinheim,Rhein-Main-Verkehrsverbund GmbH,RMV,nein,ja,8.83595,49.82973
Hessen,Darmstadt,5272,Riedrode,FRIE,6,Am Sportplatz,68642,Bürstadt,Verkehrsverbund Rhein-Neckar GmbH,RMV,nein,ja,8.49943,49.64792
Hessen,Darmstadt,2161,Riedstadt-Goddelau,FGE,4,Bahnhofsallee 17,64560,Riedstadt,Rhein-Main-Verkehrsverbund GmbH,0,nein,ja,8.49037,49.83396
Hessen,Darmstadt,3608,Riedstadt-Wolfskehlen,FLW,6,Bahnhofsplatz 1,64560,Riedstadt,Rhein-Main-Verkehrsverbund GmbH,RMV,nein,ja,8.49377,49.85418
Hessen,Darmstadt,4615,Rödermark-Ober Roden,FORD,4,Dieburgerstr. 69,63322,Ober Roden / Rödermark,Rhein-Main-Verkehrsverbund GmbH,RMV,nein,ja,8.82942,49.97354
Hessen,Darmstadt,6372,Rödermark-Urberach,FUCH,6,Bruchwiesenstr. 1,63322,Rödermark,Rhein-Main-Verkehrsverbund GmbH,RMV,nein,ja,8.79888,49.97469
Hessen,Darmstadt,5815,Seligenstadt (Hess),FSEL,6,Eisenbahnstr. 5,63500,Seligenstadt,Rhein-Main-Verkehrsverbund GmbH,RMV,nein,ja,8.96778,50.04139
Hessen,Darmstadt,6035,Stockstadt (Rhein),FSTR,6,Lindenstr. 1,64589,Stockstadt,Rhein-Main-Verkehrsverbund GmbH,RMV,nein,ja,8.47218,49.80949
Hessen,Darmstadt,6503,Walldorf (Hess),FWF,5,Farmstr. 5,64546,Mörfelden-Walldorf,Rhein-Main-Verkehrsverbund GmbH,RMV,nein,ja,8.58177,50.00336
Hessen,Darmstadt,6647,Weiterstadt,FWI,6,Bahnhofstr. 2,64331,Weiterstadt,Rhein-Main-Verkehrsverbund GmbH,RMV,nein,ja,8.57895,49.90958
Hessen,Darmstadt,6999,Zeppelinheim,FZEP,6,Flughafenstr. 1A,63263,Neu Isenburg,Rhein-Main-Verkehrsverbund GmbH,RMV,nein,ja,8.60578,50.03648
Hessen,Darmstadt,7075,Zwingenberg (Bergstr),FZW,5,Bahnhofstr. 25,64673,Zwingenberg,Verkehrsverbund Rhein-Neckar GmbH,RMV,nein,ja,8.60917,49.72557
Hessen,Frankfurt a. M.,7982,Frankfurt am Main Flughafen Fernbahnhof,FFLF,3,Hugo-Eckener-Ring 1,60549,Frankfurt am Main,Rhein-Main-Verkehrsverbund GmbH,,ja,nein,8.5813,50.05161
Hessen,Frankfurt a. M.,1849,Frankfurt (Main) Flughafen Regionalbahnhof,FFLU,3,Hugo-Eckener-Ring 1,60549,Frankfurt am Main,Rhein-Main-Verkehrsverbund GmbH,RMV,nein,ja,8.5813,50.05161
Hessen,Frankfurt a. M.,2537,Hanau Hbf,FH,2,Am Hauptbahnhof 14a,63450,Hanau,Rhein-Main-Verkehrsverbund GmbH,RMV,ja,ja,8.92917,50.12194
Hessen,Frankfurt a. M.,1866,Frankfurt (Main) Hbf,FF,1,Im Hauptbahnhof,60329,Frankfurt am Main,Rhein-Main-Verkehrsverbund GmbH,RMV,ja,ja,8.66461,50.10773
Hessen,Kassel,95,Altenfeld (Rhön),FATF,7,Lahngrabenweg 1,36129,Gersfeld (Rhön),Rhein-Main-Verkehrsverbund GmbH,RMV,nein,ja,9.85378,50.45157
Hessen,Kassel,347,Bad Soden-Salmünster,FBSS,5,Bahnhofstraße 16,63628,Bad Soden-Salmünster,Rhein-Main-Verkehrsverbund GmbH,RMV,nein,ja,9.37096,50.28101
Hessen,Kassel,2287,Bad Vilbel-Gronau,FGRN,6,Bachwiesenstraße 9 a,61118,Bad Vilbel,Rhein-Main-Verkehrsverbund GmbH,RMV,nein,ja,8.78239,50.19158
Hessen,Kassel,901,Bruchköbel,FBK,6,Bahnhofstraße 70,63486,Bruchköbel,Rhein-Main-Verkehrsverbund GmbH,RMV,nein,ja,8.91947,50.18603
Hessen,Kassel,1500,Eichenzell,FEIZ,6,Fuldaer Straße 3 a,36124,Eichenzell,Rhein-Main-Verkehrsverbund GmbH,RMV,nein,ja,9.69483,50.49388
Hessen,Kassel,1812,Flieden,FFD,5,Bahnhofsstraße 28,36103,Flieden,Rhein-Main-Verkehrsverbund GmbH,RMV,nein,ja,9.5762,50.42143
Hessen,Kassel,1973,Fulda,FFU,2,Am Bahnhof 3,36037,Fulda,Rhein-Main-Verkehrsverbund GmbH,RMV,ja,ja,9.68374,50.55414
Hessen,Kassel,2051,Gelnhausen,FGEL,4,Bahnhofstraße 6,63571,Gelnhausen,Rhein-Main-Verkehrsverbund GmbH,RMV,nein,ja,9.18883,50.19645
Hessen,Kassel,2102,Gersfeld (Rhön),FGFD,6,Bahnhofstraße 12,36129,Gersfeld (Rhön),Rhein-Main-Verkehrsverbund GmbH,RMV,nein,ja,9.9151,50.44916
Hessen,Kassel,2477,Hailer-Meerholz,FHME,5,Am Bahnhof 6,63571,Gelnhausen,Rhein-Main-Verkehrsverbund GmbH,RMV,nein,ja,9.15151,50.18946
Hessen,Kassel,2483,Haitz-Höchst,FHAI,6,Biersteiner Straße 42 d,63571,Gelnhausen,Rhein-Main-Verkehrsverbund GmbH,RMV,nein,ja,9.22736,50.20942
Hessen,Kassel,2751,Hettenhausen,FHH,7,Ringstraße 2a,36129,Gersfeld (Rhön),Rhein-Main-Verkehrsverbund GmbH,RMV,nein,ja,9.81173,50.44868
Hessen,Kassel,3550,Langenselbold,FSLB,4,Am Bahnhof 1,63505,Langenselbold,Rhein-Main-Verkehrsverbund GmbH,RMV,nein,ja,9.05731,50.16221
Hessen,Kassel,3712,Lieblos,FLIE,6,Leipziger Straße 51,63584,Gründau,Rhein-Main-Verkehrsverbund GmbH,RMV,nein,ja,9.10273,50.19676
Hessen,Kassel,3870,Lütter,FLUE,6,Strehlhofweg 7,36124,Eichenzell-Lütter,Rhein-Main-Verkehrsverbund GmbH,RMV,nein,ja,9.76633,50.48082
Hessen,Kassel,4125,Mittel Gründau,FMGD,6,Weißwiesenstraße 21,63584,Gründau,Rhein-Main-Verkehrsverbund GmbH,RMV,nein,ja,9.11983,50.23094
Hessen,Kassel,4400,Neuhof (Kr Fulda),FNF,5, Hattenhofer Str. 12 b,36119,Neuhof,Rhein-Main-Verkehrsverbund GmbH,RMV,nein,ja,9.62253,50.45367
Hessen,Kassel,2670,Nidderau,FHWD,5,Bahnhofstraße 108,61130,Nidderau,Rhein-Main-Verkehrsverbund GmbH,RMV,nein,ja,8.88313,50.22718
Hessen,Kassel,1497,Nidderau-Eichen,FECH,6,Eichwaldstraße 2,61130,Nidderau,Rhein-Main-Verkehrsverbund GmbH,RMV,nein,ja,8.91692,50.25636
Hessen,Kassel,6791,Nidderau-Windecken,FWIN,6,Konrad-Adenauer-Allee an der B 45,61130,Nidderau,Rhein-Main-Verkehrsverbund GmbH,RMV,nein,ja,8.87222,50.22889
Hessen,Kassel,4490,Niederdorfelden,FNIE,6,Bahnhofstraße 3,61138,Niederdorfelden,Rhein-Main-Verkehrsverbund GmbH,RMV,nein,ja,8.8088,50.19348
Hessen,Kassel,4510,Niedermittlau,FNMI,5,Fichtenstraße 1,63594,Hasselroth,Rhein-Main-Verkehrsverbund GmbH,RMV,nein,ja,9.10993,50.17795
Hessen,Kassel,4807,Ostheim (Kr Hanau),FOS,6,Eisenbahnstraße 33,61130,Nidderau,Rhein-Main-Verkehrsverbund GmbH,RMV,nein,ja,8.90297,50.22016
Hessen,Kassel,5268,Ried,FRID,6,Sandgasse 1,36157,Ebersburg-Ried,Rhein-Main-Verkehrsverbund GmbH,RMV,nein,ja,9.76906,50.45953
Hessen,Kassel,5305,Rodenbach bei Hanau,FROD,5,Hainbornstraße 13,63517,Rodenbach,Rhein-Main-Verkehrsverbund GmbH,RMV,nein,ja,9.01276,50.14692
Hessen,Kassel,5339,Rönshausen,FROH,7,Rönshausener Straße 31 b,36124,Eichenzell,Rhein-Main-Verkehrsverbund GmbH,RMV,nein,ja,9.7432,50.47781
Hessen,Kassel,5601,Schlüchtern,FSUE,4,Am Bahnhof 1,36381,Schlüchtern,Rhein-Main-Verkehrsverbund GmbH,RMV,ja,ja,9.50973,50.34109
Hessen,Kassel,5606,Schmalnau,FSMU,7,Bahnhofstraße 13,36157,Ebersburg,Rhein-Main-Verkehrsverbund GmbH,RMV,nein,ja,9.78807,50.45634
Hessen,Kassel,955,Schöneck-Büdesheim,FBHM,6,Bahnhofstraße 46,61137,Schöneck,Rhein-Main-Verkehrsverbund GmbH,RMV,nein,ja,8.84334,50.21513
Hessen,Kassel,3178,Schöneck-Kilianstädten,FKIL,6,Am Bahnhof 1,61137,Schöneck,Rhein-Main-Verkehrsverbund GmbH,RMV,nein,ja,8.84186,50.21563
Hessen,Kassel,4633,Schöneck-Oberdorfelden,FOBD,6,Hochstädter Straße 1 a,61137,Oberdorfelden,Rhein-Main-Verkehrsverbund GmbH,RMV,nein,ja,8.82237,50.19609
Hessen,Kassel,5986,Steinau (Straße),FSA,5,Bahnhofstraße 40,36396,Steinau an der Straße,Rhein-Main-Verkehrsverbund GmbH,RMV,nein,ja,9.44438,50.31381
Hessen,Kassel,6017,Sterbfritz,FSTZ,7,Bahnhofstraße 6,36391,Sinntal,Rhein-Main-Verkehrsverbund GmbH,RMV,nein,ja,9.62545,50.31312
Hessen,Kassel,6460,Wächtersbach,FWAE,4,Am Bahnhof 2,63607,Wächtersbach,Rhein-Main-Verkehrsverbund GmbH,RMV,nein,ja,9.2964,50.25499
Hessen,Kassel,6653,Welkers,FWES,7,Bürgermeister-Schlag-Straße 2 a,36124,Eichenzell,Rhein-Main-Verkehrsverbund GmbH,RMV,nein,ja,9.72214,50.48226
Hessen,Kassel,6817,Wirtheim,FWIR,6,Bahnhofstraße 1,63599,Biebergemünd,Rhein-Main-Verkehrsverbund GmbH,RMV,nein,ja,9.32634,50.15889
Hessen,Gießen,46,Albshausen,FALS,6,Am Bahnhof 62,35606,Solms,Rhein-Main-Verkehrsverbund GmbH,RMV,nein,ja,8.43466,50.54609
Hessen,Gießen,59,Allendorf (Dillkr),FADD,7,Hörlenweg 1,35708,Haiger,Rhein-Main-Verkehrsverbund GmbH,RMV,nein,ja,8.18345,50.74638
Hessen,Gießen,109,Altenstadt (Hess),FAST,6,Hanauer Straße 25,63674,Altenstadt,Rhein-Main-Verkehrsverbund GmbH,RMV,nein,ja,8.94395,50.28358
Hessen,Gießen,2806,Altenstadt-Höchst,FHTN,6,Bahnhofstraße 19,63674,Altenstadt,Rhein-Main-Verkehrsverbund GmbH,RMV,nein,ja,8.9238,50.26993
Hessen,Gießen,3735,Altenstadt-Lindheim,FLIN,6,Neuer Weg 10,63674,Altenstadt,Rhein-Main-Verkehrsverbund GmbH,RMV,nein,ja,8.97341,50.29085
Hessen,Gießen,164,Anzefahr,FAZ,6,Marburger Str. 1,35274,Kirchhain,Rhein-Main-Verkehrsverbund GmbH,RMV,nein,ja,8.87068,50.84303
Hessen,Gießen,173,Arfurt (Lahn),FAF,6,Am Bahnhof 1,65594,Runkel,Rhein-Main-Verkehrsverbund GmbH,RMV,nein,ja,8.1585,50.40621
Hessen,Gießen,199,Aßlar,FAL,6,Mühlweg 2,35614,Aßlar,Rhein-Main-Verkehrsverbund GmbH,RMV,nein,ja,8.4635,50.58823
Hessen,Gießen,198,Assenheim (Oberhess),FAS,6,Bahnhofstr. 40,61194,Niddatal,Rhein-Main-Verkehrsverbund GmbH,RMV,nein,ja,8.81164,50.30374
Hessen,Gießen,228,Aumenau,FAUM,6,Überlahn 1,65606,Villmar,Rhein-Main-Verkehrsverbund GmbH,RMV,nein,ja,8.19504,50.39425
Hessen,Gießen,261,Bad Camberg,FCA,5,Casper-Hoffmann-Platz 1,65520,Bad Camberg,Rhein-Main-Verkehrsverbund GmbH,RMV,nein,ja,8.25534,50.29659
Hessen,Gießen,310,Bad Nauheim,FBNA,4,Bahnhofsallee 12,61231,Bad Nauheim,Rhein-Main-Verkehrsverbund GmbH,RMV,ja,ja,8.74871,50.36773
Hessen,Gießen,329,Bad Salzhausen,FBSH,6,Im Park 3,63667,Nidda,Rhein-Main-Verkehrsverbund GmbH,RMV,nein,ja,8.9801,50.41873
Hessen,Gießen,464,Beienheim,FBEI,6,Bahnhofstr. 14,61203,Reichelsheim (Wetterau),Rhein-Main-Verkehrsverbund GmbH,RMV,nein,ja,8.82062,50.35904
Hessen,Gießen,701,Bleichenbach (Oberhess),FBLH,7,Bahnhofstraße 42,63683,Ortenberg,Rhein-Main-Verkehrsverbund GmbH,RMV,nein,ja,9.05019,50.32364
Hessen,Gießen,796,Borsdorf (Hess),FBO,6,Wetteraustr. 34,63667,Nidda,Rhein-Main-Verkehrsverbund GmbH,RMV,nein,ja,8.97333,50.42998
Hessen,Gießen,937,Büches-Düdelsheim,FBDH,6,Frankfurter Straße 62 a,63654,Büdingen ,Rhein-Main-Verkehrsverbund GmbH,RMV,nein,ja,9.0669,50.29798
Hessen,Gießen,957,Büdingen (Oberhess),FBDG,6,Bahnhofstraße 70,63654,Büdingen (Oberhess),Rhein-Main-Verkehrsverbund GmbH,RMV,nein,ja,9.10132,50.28925
Hessen,Gießen,975,Burg (Dillkr) Nord,FBUN,6,Juno-Str. 3,35745,Herborn,Rhein-Main-Verkehrsverbund GmbH,RMV,nein,ja,8.31327,50.70002
Hessen,Gießen,983,Bürgeln,FBRG,6,Ohmtalstr. 1,35091,Cölbe,Rhein-Main-Verkehrsverbund GmbH,RMV,nein,ja,8.81984,50.85451
Hessen,Gießen,987,Burgholzhausen v d Höhe,FBGH,6,Wilhelm-Reuter-Weg 19,61381,Friedrichsdorf,Rhein-Main-Verkehrsverbund GmbH,RMV,nein,ja,8.67712,50.25767
Hessen,Gießen,1013,Butzbach,FBZ,4,Bahnhofstr. 8,35510,Butzbach,Rhein-Main-Verkehrsverbund GmbH,RMV,nein,ja,8.68251,50.41427
Hessen,Gießen,1063,Cölbe,FCOE,5,Kasseler Str. 88,35091,Cölbe,Rhein-Main-Verkehrsverbund GmbH,RMV,nein,ja,8.78712,50.84844
Hessen,Gießen,1213,Dillbrecht,FDBT,6,Am Bahnhof 1,35708,Haiger,Rhein-Main-Verkehrsverbund GmbH,RMV,nein,ja,8.2198,50.74179
Hessen,Gießen,1214,Dillenburg,FDIL,4,Bahnhofsplatz 5,35683,Dillenburg,Rhein-Main-Verkehrsverbund GmbH,RMV,ja,ja,8.29423,50.73481
Hessen,Gießen,1273,Dorheim (Wetterau),FDH,6,Wetteraustr. 72,61169,Friedberg (Hessen),Rhein-Main-Verkehrsverbund GmbH,RMV,nein,ja,8.79078,50.35248
Hessen,Gießen,1424,Dutenhofen (Kr Wetzlar),FDTH,6,Bahnhofstr. 50,35582,Wetzlar,Rhein-Main-Verkehrsverbund GmbH,RMV,nein,ja,8.60022,50.56262
Hessen,Gießen,1452,Echzell,FEZL,6,Bahnhofstr. 33,61209,Echzell,Rhein-Main-Verkehrsverbund GmbH,RMV,nein,ja,8.8909,50.39082
Hessen,Gießen,1464,Edingen (Kr Wetzlar),FEDI,6,Brückenstr. 1,35764,Sinn,Rhein-Main-Verkehrsverbund GmbH,RMV,nein,ja,8.32204,50.6326
Hessen,Gießen,1468,Effolderbach,FEF,7,Stockheimer Str. 1,63683,Ortenberg,Rhein-Main-Verkehrsverbund GmbH,RMV,nein,ja,9.00896,50.34108
Hessen,Gießen,1492,Ehringshausen (Kr Wetzlar),FEHR,6,Am Bahnhof 7,35630,Ehringshausen,Rhein-Main-Verkehrsverbund GmbH,RMV,nein,ja,8.3842,50.59516
Hessen,Gießen,1574,Elz (Kr Limburg/Lahn),FELZ,6,Offheimer Str. 14,65604,Elz,Rhein-Main-Verkehrsverbund GmbH,RMV,nein,ja,8.03783,50.41515
Hessen,Gießen,1575,Elz (Kr Limburg/Lahn) Süd,FELS,7,Am Südbahnhof 1,65604,Elz,Rhein-Main-Verkehrsverbund GmbH,RMV,nein,ja,8.03213,50.40848
Hessen,Gießen,1678,Eschhofen,FEN,4,Bahnhofstr. 38,65552,Limburg a. d. Lahn,Rhein-Main-Verkehrsverbund GmbH,RMV,nein,ja,8.10561,50.39395
Hessen,Gießen,1926,Frickhofen,FFRN,6,Bahnhofstr. 37,65599,Dornburg,Rhein-Main-Verkehrsverbund GmbH,RMV,nein,ja,8.04453,50.53874
Hessen,Gießen,1930,Friedberg (Hess),FFG,3,Hanauer Str. 44,61169,Friedberg (Hessen),Rhein-Main-Verkehrsverbund GmbH,RMV,ja,ja,8.76079,50.33255
Hessen,Gießen,1870,Friedberg Süd,FGS,7,Frankfurter Str. 40,61169,Friedberg (Hessen),Rhein-Main-Verkehrsverbund GmbH,RMV,nein,ja,8.74636,50.31899
Hessen,Gießen,1931,Friedelhausen,FFN,6,An der Kreisstr. 26,35457,Lollar,Rhein-Main-Verkehrsverbund GmbH,RMV,nein,ja,8.70608,50.64753
Hessen,Gießen,1970,Fronhausen (Lahn),FFRL,6,Bahnhofstr. 44,35112,Fronhausen,Rhein-Main-Verkehrsverbund GmbH,RMV,nein,ja,8.69877,50.70604
Hessen,Gießen,1974,Fürfurt,FFUR,6,Bahnhofsringstr. 1,35796,Weinbach,Rhein-Main-Verkehrsverbund GmbH,RMV,nein,ja,8.25312,50.43093
Hessen,Gießen,2009,Garbenteich,FGA,6,Am Lügebach,35415,Pohlheim,Rhein-Main-Verkehrsverbund GmbH,RMV,nein,ja,8.74574,50.54016
Hessen,Gießen,2111,Gettenau-Bingenheim,FGGB,6,Hauptstr. 4,61209,Echzell,Rhein-Main-Verkehrsverbund GmbH,RMV,nein,ja,8.88604,50.37908
Hessen,Gießen,2120,Gießen,FG,2,Bahnhofstr. 102,35390,Gießen,Rhein-Main-Verkehrsverbund GmbH,RMV,ja,ja,8.66351,50.57968
Hessen,Gießen,1627,Gießen Erdkauter Weg,FEKW,6,Erdkauter Weg,35390,Gießen,Rhein-Main-Verkehrsverbund GmbH,RMV,nein,ja,8.68681,50.57121
Hessen,Gießen,2121,Gießen Licher Straße,FLST,6,Licher Str. 1,35390,Gießen,Rhein-Main-Verkehrsverbund GmbH,RMV,nein,ja,8.6847,50.58375
Hessen,Gießen,7968,Gießen Oswaldsgarten,FGOG,5,Bootshausstraße/Nordanlage,35390,Gießen,Rhein-Main-Verkehrsverbund GmbH,RMV,nein,ja,8.67351,50.58981
Hessen,Gießen,2140,Glauburg-Glauberg,FGBG,6,Heegheimer Straße 14,63695,Glauburg,Rhein-Main-Verkehrsverbund GmbH,RMV,nein,ja,8.99605,50.31364
Hessen,Gießen,6033,Glauburg-Stockheim,FSTM,5,Bahnhofstraße 61,63695,Glauburg,Rhein-Main-Verkehrsverbund GmbH,RMV,nein,ja,9.01053,50.32603
Hessen,Gießen,2158,Göbelnrod,FGOE,7,Am Bahnhof 1,35305,Grünberg,Rhein-Main-Verkehrsverbund GmbH,0,nein,ja,8.9216,50.59845
Hessen,Gießen,2249,Gräveneck,FGRK,6,Bahnhofstr. 15,35796,Weinbach,Rhein-Main-Verkehrsverbund GmbH,RMV,nein,ja,8.25091,50.45241
Hessen,Gießen,2336,Großen Buseck,FGRB,6,Bahnhofstr. 14,35418,Buseck,Rhein-Main-Verkehrsverbund GmbH,RMV,nein,ja,8.78317,50.60584
Hessen,Gießen,2337,Großen Linden,FGL,5,Bahnhofstr. 122,35440,Linden,Rhein-Main-Verkehrsverbund GmbH,RMV,nein,ja,8.66169,50.52834
Hessen,Gießen,2389,Grünberg (Oberhess),FGRG,6,Bahnhofstr. 36,35305,Grünberg,Rhein-Main-Verkehrsverbund GmbH,RMV,nein,ja,8.96028,50.59638
Hessen,Gießen,2448,Hadamar,FHAD,6,Bahnhofstr. 1,65589,Hadamar,Rhein-Main-Verkehrsverbund GmbH,RMV,nein,ja,8.05748,50.47357
Hessen,Gießen,2475,Haiger,FHG,5,Bahnhofstr. 1,35708,Haiger,Rhein-Main-Verkehrsverbund GmbH,RMV,ja,ja,8.2198,50.74179
Hessen,Gießen,2476,Haiger Obertor,FHGO,7,Westerwaldstr. 7,35708,Haiger,Rhein-Main-Verkehrsverbund GmbH,RMV,nein,ja,8.20209,50.74159
Hessen,Gießen,2607,Häuserhof,FHHF,6,B 455,63667,Nidda,Rhein-Main-Verkehrsverbund GmbH,0,nein,ja,8.99652,50.43414
Hessen,Gießen,2701,Herborn (Dillkr),FHRB,4,Bahnhofsplatz 1,35745,Herborn,Rhein-Main-Verkehrsverbund GmbH,RMV,ja,ja,8.30764,50.68468
Hessen,Gießen,2950,Hungen,FHUG,6,Raiffeisenstr. 7,35410,Hungen,Rhein-Main-Verkehrsverbund GmbH,RMV,nein,ja,8.89158,50.47802
Hessen,Gießen,3136,Katzenfurt,FKFT,6,Brückenstr. 33,35630,Ehringshausen,Rhein-Main-Verkehrsverbund GmbH,RMV,nein,ja,8.3429,50.61651
Hessen,Gießen,3161,Kerkerbach,FKB,6,Industriegebiet 1,65594,Runkel,Rhein-Main-Verkehrsverbund GmbH,RMV,nein,ja,8.15304,50.40535
Hessen,Gießen,3180,Kirch Göns,FKGS,5,Bahnhofstr. 102,35510,Butzbach,Rhein-Main-Verkehrsverbund GmbH,RMV,nein,ja,8.66638,50.47395
Hessen,Gießen,3191,Kirchhain (Bz Kassel),FKIH,4,Am Bahnhof 9,35274,Kirchhain,Rhein-Main-Verkehrsverbund GmbH,RMV,nein,ja,8.92157,50.82354
Hessen,Gießen,3519,Lang Göns,FLGS,4,Bahnhofstr. 9,35428,Langgöns,Rhein-Main-Verkehrsverbund GmbH,RMV,nein,ja,8.66675,50.4975
Hessen,Gießen,3563,Langsdorf (Oberhess),FLF,6,Im Himmerich,35423,Lich,Rhein-Main-Verkehrsverbund GmbH,RMV,nein,ja,8.8565,50.49459
Hessen,Gießen,3616,Lehnheim,FLEH,7,Am Kammerpfad 33,35305,Grünberg,Rhein-Main-Verkehrsverbund GmbH,RMV,nein,ja,8.99188,50.60705
Hessen,Gießen,831,Leun/Braunfels,FBFS,6,Burgsolmer Str. 3,35638,Leun,Rhein-Main-Verkehrsverbund GmbH,RMV,nein,ja,8.36659,50.53973
Hessen,Gießen,3696,Lich (Oberhess),FLI,5,Bahnhofstr. 1,35423,Lich,Rhein-Main-Verkehrsverbund GmbH,RMV,nein,ja,8.82219,50.51487
Hessen,Gießen,3720,Limburg (Lahn),FL,3,Bahnhofsplatz 1,65549,Limburg,Rhein-Main-Verkehrsverbund GmbH,RMV,nein,ja,8.06261,50.3847
Hessen,Gießen,3723,Limburg Süd,FLIS,4,Londoner Str. 5,65552,Limburg,Rhein-Main-Verkehrsverbund GmbH,RMV,ja,nein,8.09571,50.38227
Hessen,Gießen,3733,Lindenholzhausen,FLHN,6,Bahnhofstr. 72,65551,Limburg,Rhein-Main-Verkehrsverbund GmbH,RMV,nein,ja,8.13253,50.37789
Hessen,Gießen,3766,Löhnberg,FLOE,6,Am Bahnhof 1,35792,Löhnberg,Rhein-Main-Verkehrsverbund GmbH,RMV,nein,ja,8.27201,50.51044
Hessen,Gießen,3776,Lollar,FLOL,5,Bahnhofstr. 10,35457,Lollar,Rhein-Main-Verkehrsverbund GmbH,RMV,nein,ja,8.70138,50.64797
Hessen,Gießen,3943,Marburg (Lahn),FMBG,2,Bahnhofstr. 33,35037,Marburg,Rhein-Main-Verkehrsverbund GmbH,RMV,ja,ja,8.77413,50.81963
Hessen,Gießen,3944,Marburg Süd,FMBS,5,Frauenbergstr. 1,35039,Marburg,Rhein-Main-Verkehrsverbund GmbH,RMV,nein,ja,8.76296,50.79486
Hessen,Gießen,4040,Melbach,FMLB,6,Erbsengasse 18,61200,Wölfersheim,Rhein-Main-Verkehrsverbund GmbH,RMV,nein,ja,8.81129,50.37912
Hessen,Gießen,4448,Neustadt (Kr Marburg),FNSM,5,Bahnhofstr. 28,35279,Neustadt/Hessen,Rhein-Main-Verkehrsverbund GmbH,RMV,nein,ja,9.12101,50.85062
Hessen,Gießen,4471,Nidda,FND,4,Bahnhofstr. 62,63667,Nidda,Rhein-Main-Verkehrsverbund GmbH,RMV,nein,ja,8.99989,50.41074
Hessen,Gießen,4485,Niederbrechen,FNCH,5,Bahnhofstr. 32,65611,Brechen,Rhein-Main-Verkehrsverbund GmbH,RMV,nein,ja,8.1612,50.35954
Hessen,Gießen,4497,Niederhadamar,FNHD,7,Offheimerstr. 38,65589,Hadamar,Rhein-Main-Verkehrsverbund GmbH,RMV,nein,ja,8.04398,50.41504
Hessen,Gießen,4520,Niederscheld (Dillkr) Süd,FNDS,6,Hauptstr. 1,35687,Dillenburg,Rhein-Main-Verkehrsverbund GmbH,RMV,nein,ja,8.3027,50.71863
Hessen,Gießen,4527,Niederselters,FNS,6,Bahnhofstr. 2,65618,Selters,Rhein-Main-Verkehrsverbund GmbH,RMV,nein,ja,8.22854,50.33285
Hessen,Gießen,4535,Niederwalgern,FNL,5,Bahnhofstr. 1,35096,Weimar (Lahn),Rhein-Main-Verkehrsverbund GmbH,RMV,nein,ja,8.7038,50.73541
Hessen,Gießen,4538,Niederweimar,FNDW,6,Am Bahnhof 1,35096,Weimar (Lahn),Rhein-Main-Verkehrsverbund GmbH,RMV,nein,ja,8.7038,50.73541
Hessen,Gießen,4543,Niederzeuzheim,FNIZ,6,Bahnhofstr. 1,65589,Hadamar,Rhein-Main-Verkehrsverbund GmbH,RMV,nein,ja,8.05748,50.47357
Hessen,Gießen,4616,Ober Widdersheim,FOW,6,Basaltstr. 22,63667,Nidda,Rhein-Main-Verkehrsverbund GmbH,RMV,nein,ja,8.93414,50.42972
Hessen,Gießen,4627,Oberbrechen,FOB,6,Frankfurter Str. 2,65611,Brechen,Rhein-Main-Verkehrsverbund GmbH,RMV,nein,ja,8.1888,50.35432
Hessen,Gießen,4806,Ostheim (b Butzbach),FOM,5,Bahnhofstr. 57,35510,Butzbach,Rhein-Main-Verkehrsverbund GmbH,RMV,nein,ja,8.67826,50.41
Hessen,Gießen,5121,Ranstadt,FRAN,6,Bahnhofstr. 13,63691,Ranstadt,Rhein-Main-Verkehrsverbund GmbH,RMV,nein,ja,8.98322,50.35705
Hessen,Gießen,5183,Reichelsheim (Wetterau),FRHM,6,Bahnhofstr. 21,61203,Reichelsheim (Wetterau),Rhein-Main-Verkehrsverbund GmbH,RMV,nein,ja,8.81962,50.35879
Hessen,Gießen,5209,Reiskirchen (Kr Gießen),FRSK,6,Grünbergerstr. 36,35447,Reiskirchen,Rhein-Main-Verkehrsverbund GmbH,RMV,nein,ja,8.8313,50.59798
Hessen,Gießen,5304,Rodenbach (Dillkr),FRB,6,Zum Tiergarten 11,35708,Haiger,Rhein-Main-Verkehrsverbund GmbH,RMV,nein,ja,8.20556,50.77452
Hessen,Gießen,5311,Rodheim v d Höhe,FRO,7,Hauptstr. 80,61191,Rosbach v d Höhe,Rhein-Main-Verkehrsverbund GmbH,RMV,nein,ja,8.69791,50.2662
Hessen,Gießen,5342,Rosbach v d Höhe,FROS,6,Am Bahnhof 5,61191,Rosbach v d Höhe,Rhein-Main-Verkehrsverbund GmbH,RMV,nein,ja,8.70106,50.29804
Hessen,Gießen,5434,Runkel,FRUK,6,Bahnhofstr. 5,65594,Runkel,Rhein-Main-Verkehrsverbund GmbH,RMV,nein,ja,8.15922,50.40531
Hessen,Gießen,5460,Saasen,FSAA,7,Wieseckstraße 1,35447,Reiskirchen,Rhein-Main-Verkehrsverbund GmbH,RMV,nein,ja,8.88217,50.59604
Hessen,Gießen,5772,Sechshelden,FSN,6,Zum Hengstbach 4,35708,Haiger,Rhein-Main-Verkehrsverbund GmbH,RMV,nein,ja,8.25251,50.7491
Hessen,Gießen,5869,Sinn,FSI,6,Am Bahnhof 1,35764,Sinn,Rhein-Main-Verkehrsverbund GmbH,RMV,nein,ja,8.32825,50.65141
Hessen,Gießen,5889,Solms,FSOL,6,Bahnhofsallee 39,35606,Solms,Rhein-Main-Verkehrsverbund GmbH,RMV,nein,ja,8.40683,50.54457
Hessen,Gießen,5953,Stadtallendorf,FSTA,4,Am Bahnhof 1a,35260,Stadtallendorf,Rhein-Main-Verkehrsverbund GmbH,RMV,nein,ja,9.01535,50.82556
Hessen,Gießen,5962,Staffel,FST,6,Am Bahnhof 9,65549,Limburg/Lahn,Rhein-Main-Verkehrsverbund GmbH,RMV,nein,ja,8.06363,50.38688
Hessen,Gießen,6031,Stockhausen (Lahn),FSTH,6,Bahnhofstr. 17,35638,Leun,Rhein-Main-Verkehrsverbund GmbH,RMV,nein,ja,8.32515,50.54059
Hessen,Gießen,6234,Trais-Horloff,FTH,7,Bruchweg 20,35410,Hungen,Rhein-Main-Verkehrsverbund GmbH,RMV,nein,ja,8.92156,50.4447
Hessen,Gießen,6419,Villmar,FVR,6,Oberau 2,65606,Villmar,Rhein-Main-Verkehrsverbund GmbH,RMV,nein,ja,8.18689,50.39834
Hessen,Gießen,6570,Watzenborn-Steinberg,FWST,6,Bahnhofstr.,35415,Pohlheim,Rhein-Main-Verkehrsverbund GmbH,RMV,nein,ja,8.72003,50.54107
Hessen,Gießen,6573,Weckesheim,FWCK,7,Reichelsheimer Str. 1,61203,Reichelsheim (Wetterau),Rhein-Main-Verkehrsverbund GmbH,RMV,nein,ja,8.84381,50.35958
Hessen,Gießen,6612,Weilburg,FWG,5,Bahnhofstr. 4,35781,Weilburg,Rhein-Main-Verkehrsverbund GmbH,RMV,nein,ja,8.26562,50.48504
Hessen,Gießen,6684,Werdorf,FWDF,6,Bahnhofstr. 1,35614,Aßlar,Rhein-Main-Verkehrsverbund GmbH,RMV,nein,ja,8.4167,50.5952
Hessen,Gießen,6730,Wetzlar,FWR,3,Willy-Brandt-Platz 1,35576,Wetzlar,Rhein-Main-Verkehrsverbund GmbH,RMV,nein,ja,8.50387,50.56515
Hessen,Gießen,6785,Wilsenroth,FWTH,6,Bahnhofstr. 83,65599,Dornburg,Rhein-Main-Verkehrsverbund GmbH,RMV,nein,ja,8.0419,50.53584
Hessen,Gießen,6855,Wölfersheim-Södel,FWOE,6,Seestr. 7,61200,Wölfersheim,Rhein-Main-Verkehrsverbund GmbH,RMV,nein,ja,8.81642,50.39896
Rheinland-Pfalz,Kaiserslautern,42,Albersweiler (Pfalz),RAR,6,Kanalstr. 26,76857,Albersweiler,Zweckverband Schienenpersonennahverkehr Rheinland-Pfalz Süd,VRN,nein,ja,8.026,49.21846
Rheinland-Pfalz,Kaiserslautern,7201,Albsheim (Eis),RAM,7,Bahnhofstr.30,67283,Obrigheim,Zweckverband Schienenpersonennahverkehr Rheinland-Pfalz Süd,VRN,nein,ja,8.17898,49.57994
Rheinland-Pfalz,Kaiserslautern,64,Alsenz,SAZ,6,Bahnhofstr. 1,67821,Alsenz,Zweckverband Schienenpersonennahverkehr Rheinland-Pfalz Süd,VRN,nein,ja,7.81682,49.72731
Rheinland-Pfalz,Kaiserslautern,96,Altenglan,SALG,6,Bahnhofstr. 45,66885,Altenglan,Zweckverband Schienenpersonennahverkehr Rheinland-Pfalz Süd,VRN,nein,ja,7.46157,49.54878
Rheinland-Pfalz,Kaiserslautern,158,Annweiler am Trifels,RAN,5,Bahnhofstr. 17,76855,Annweiler am Trifels,Zweckverband Schienenpersonennahverkehr Rheinland-Pfalz Süd,VRN,nein,ja,7.96644,49.20525
Rheinland-Pfalz,Kaiserslautern,8242,Annweiler-Sarnstall,RANS,7,Wasgaustraße 7,76855,Annweiler am Trifels,Zweckverband Schienenpersonennahverkehr Rheinland-Pfalz Süd,,nein,nein,7.93579,49.20903
Rheinland-Pfalz,Kaiserslautern,197,Asselheim,RASH,7, Schloßstr. 1,67269,Grünstadt,Zweckverband Schienenpersonennahverkehr Rheinland-Pfalz Süd,VRN,nein,ja,8.16333,49.57677
Rheinland-Pfalz,Kaiserslautern,7184,Bad Bergzabern,RBZB,6,Bahnhofstr. 5,76887,Bad Bergzabern,Zweckverband Schienenpersonennahverkehr Rheinland-Pfalz Süd,VRN,nein,ja,8.00294,49.10312
Rheinland-Pfalz,Kaiserslautern,266,Bad Dürkheim,RBDH,4,Mannheimer Str. 14,67098,Bad Dürkheim,Zweckverband Schienenpersonennahverkehr Rheinland-Pfalz Süd,VRN,nein,ja,8.17037,49.46083
Rheinland-Pfalz,Kaiserslautern,267,Bad Dürkheim-Trift,RBDT,6,Triftweg 130,67098,Bad Dürkheim,Zweckverband Schienenpersonennahverkehr Rheinland-Pfalz Süd,VRN,nein,ja,8.19188,49.4657
Rheinland-Pfalz,Kaiserslautern,7185,Barbelroth,RBRT,7,Bahnhofstr.6,76889,Barbelroth,Zweckverband Schienenpersonennahverkehr Rheinland-Pfalz Süd,VRN,nein,ja,8.07161,49.10384
Rheinland-Pfalz,Kaiserslautern,476,Bellheim,RBLH,6,Bahnhofstr. 8,76756,Bellheim,Zweckverband Schienenpersonennahverkehr Rheinland-Pfalz Süd,KVV,nein,ja,8.29384,49.18689
Rheinland-Pfalz,Kaiserslautern,8201,Bellheim Am Mühlbuckel,RBLN,6,Am Mühlbuckel 10,76756,Bellheim,Zweckverband Schienenpersonennahverkehr Rheinland-Pfalz Süd,,nein,ja,8.29681,49.19334
Rheinland-Pfalz,Kaiserslautern,6353,Berg (Pfalz),RBRG,7,Ludwigstr. 1,76768,Berg,Zweckverband Schienenpersonennahverkehr Rheinland-Pfalz Süd,KVV,nein,ja,8.21357,48.98105
Rheinland-Pfalz,Kaiserslautern,716,Bobenheim,RBOB,5,Bahnhofsplatz 4,67240,Bobenheim,Zweckverband Schienenpersonennahverkehr Rheinland-Pfalz Süd,VRN,nein,ja,8.35058,49.58775
Rheinland-Pfalz,Kaiserslautern,7202,Bockenheim-Kindenheim,RBOK,6,Leininger Weg 30,67278,Bockenheim,Zweckverband Schienenpersonennahverkehr Rheinland-Pfalz Süd,VRN,nein,ja,8.1881,49.60736
Rheinland-Pfalz,Kaiserslautern,902,Bruchmühlbach-Miesau,SBUM,5,Am Bahnhof 30,66892,Bruchmühlbach-Miesau,Zweckverband Schienenpersonennahverkehr Rheinland-Pfalz Süd,VRN,nein,ja,7.44395,49.38508
Rheinland-Pfalz,Kaiserslautern,1068,Contwig,SCN,7,Bahnhofstr. 36b,66497,Contwig,Zweckverband Schienenpersonennahverkehr Rheinland-Pfalz Süd,VRN,nein,ja,7.42843,49.24541
Rheinland-Pfalz,Kaiserslautern,1151,Deidesheim,RDM,6,Bahnhofstr. 1,67146,Deidesheim,Zweckverband Schienenpersonennahverkehr Rheinland-Pfalz Süd,VRN,nein,ja,8.19234,49.40827
Rheinland-Pfalz,Kaiserslautern,1157,Dellfeld,SDE,6,Bahnhofstr. 1,66503,Dellfeld,Zweckverband Schienenpersonennahverkehr Rheinland-Pfalz Süd,VRN,nein,ja,7.46912,49.2279
Rheinland-Pfalz,Kaiserslautern,1158,Dellfeld Ort,SDEO,6,Hauptstraße 64,66503,Dellfeld,Zweckverband Schienenpersonennahverkehr Rheinland-Pfalz Süd,VRN,nein,ja,7.47815,49.23915
Rheinland-Pfalz,Kaiserslautern,1445,Ebertsheim,RET,7,Bahnhofstr.1,67280,Ebertsheim,Zweckverband Schienenpersonennahverkehr Rheinland-Pfalz Süd,VRN,nein,ja,8.10977,49.56545
Rheinland-Pfalz,Kaiserslautern,1461,Edenkoben,REK,6,Staatsstr. 27,67480,Edenkoben,Zweckverband Schienenpersonennahverkehr Rheinland-Pfalz Süd,VRN,nein,ja,8.14038,49.28347
Rheinland-Pfalz,Kaiserslautern,1462,Edesheim (Pfalz),REH,6,Eisenbahnstr.25,67483,Edesheim,Zweckverband Schienenpersonennahverkehr Rheinland-Pfalz Süd,VRN,nein,ja,8.13938,49.26329
Rheinland-Pfalz,Kaiserslautern,1525,Einsiedlerhof,SEF,6,Weilerbacher Str. 7,67661,Kaiserslautern,Zweckverband Schienenpersonennahverkehr Rheinland-Pfalz Süd,VRN,nein,ja,7.6621,49.43105
Rheinland-Pfalz,Kaiserslautern,1532,Eisenbach-Matzenbach,SEMA,7,Am Bahnhof 2,66909,Matzenbach,Zweckverband Schienenpersonennahverkehr Rheinland-Pfalz Süd,VRN,nein,ja,7.4564,49.4947
Rheinland-Pfalz,Kaiserslautern,1533,Eisenberg (Pfalz),REIS,6,Bahnhofstr. 19,67304,Eisenberg,Zweckverband Schienenpersonennahverkehr Rheinland-Pfalz Süd,VRN,nein,ja,8.07024,49.5545
Rheinland-Pfalz,Kaiserslautern,234,Eiswoog,REIW,7,Eiswoog 1a,67305,Ramsen,Zweckverband Schienenpersonennahverkehr Rheinland-Pfalz Süd,VRN,nein,ja,8.01298,49.537
Rheinland-Pfalz,Kaiserslautern,1602,Enkenbach,SENK,6,Bahnhofstr. 2,67677,Enkenbach,Zweckverband Schienenpersonennahverkehr Rheinland-Pfalz Süd,VRN,nein,ja,7.89941,49.48984
Rheinland-Pfalz,Kaiserslautern,1665,Erpolzheim,RERO,6,Bahnhofstr.70,67167,Erpolzheim,Zweckverband Schienenpersonennahverkehr Rheinland-Pfalz Süd,VRN,nein,ja,8.21117,49.48828
Rheinland-Pfalz,Kaiserslautern,1817,Flomersheim,RFLO,6,Falterstr. 12,67227,Frankenthal,Zweckverband Schienenpersonennahverkehr Rheinland-Pfalz Süd,VRN,nein,ja,8.33398,49.51431
Rheinland-Pfalz,Kaiserslautern,1848,Frankenthal Hbf,RFT,4,Eisenbahnstr. 3,67227,Frankenthal,Zweckverband Schienenpersonennahverkehr Rheinland-Pfalz Süd,VRN,nein,ja,8.35001,49.53576
Rheinland-Pfalz,Kaiserslautern,8210,Frankenthal-Süd,RFTS,4,Hammstraße 9,67622,Frankenthal,Zweckverband Schienenpersonennahverkehr Rheinland-Pfalz Süd,,nein,nein,8.34998,49.52335
Rheinland-Pfalz,Kaiserslautern,1907,Freinsheim,RFHM,4, Bahnhofstr. 55a,67251, Freinsheim,Zweckverband Schienenpersonennahverkehr Rheinland-Pfalz Süd,VRN,nein,ja,8.20484,49.50241
Rheinland-Pfalz,Kaiserslautern,7862,Galgenschanze,SGSZ,6,Karl Pfaff Siedlung 2,67663,Kaiserslautern,Zweckverband Schienenpersonennahverkehr Rheinland-Pfalz Süd,VRN,nein,ja,7.74535,49.43549
Rheinland-Pfalz,Kaiserslautern,8244,Germersheim Mitte/Rhein,RGEM,6,Rudolf-von Habsburg-Straße 17,76726,Germersheim,Zweckverband Schienenpersonennahverkehr Rheinland-Pfalz Süd,,nein,ja,8.37814,49.21995
Rheinland-Pfalz,Kaiserslautern,8206,Germersheim Süd/Nolte,RGES,6,Im Roth 1,76726,Germersheim,Zweckverband Schienenpersonennahverkehr Rheinland-Pfalz Süd,,nein,ja,11.09415,49.40623
Rheinland-Pfalz,Kaiserslautern,2136,Glan-Münchweiler,SGM,6,Bahnhofstr. 3,66907,Glan-Münchweiler,Zweckverband Schienenpersonennahverkehr Rheinland-Pfalz Süd,VRN,nein,ja,7.44458,49.47042
Rheinland-Pfalz,Kaiserslautern,2163,Godramstein,RGOR,6,Am Bahnhof 1,76829,Landau,Zweckverband Schienenpersonennahverkehr Rheinland-Pfalz Süd,VRN,nein,ja,8.07655,49.20694
Rheinland-Pfalz,Kaiserslautern,2402,Grünstadt,RGR,4,Friedrich-Ebert-Str. 4,67269,Grünstadt,Zweckverband Schienenpersonennahverkehr Rheinland-Pfalz Süd,VRN,nein,ja,8.1671,49.5647
Rheinland-Pfalz,Kaiserslautern,2403,Grünstadt Nord,RGRN,7,Uhlandstr.,67269,Grünstadt,Zweckverband Schienenpersonennahverkehr Rheinland-Pfalz Süd,VRN,nein,ja,8.16987,49.57321
Rheinland-Pfalz,Kaiserslautern,7956,Hagenbach,RHGB,6,Auestr.1,76767,Hagenbach,Zweckverband Schienenpersonennahverkehr Rheinland-Pfalz Süd,KVV,nein,ja,8.25291,49.01442
Rheinland-Pfalz,Kaiserslautern,8200,Hauenstein Mitte,SHAM,6,Falkenburgstraße 8,76846,Hauenstein,Zweckverband Schienenpersonennahverkehr Rheinland-Pfalz Süd,,nein,ja,7.84945,49.197
Rheinland-Pfalz,Kaiserslautern,2597,Hauenstein (Pfalz),SHAU,6,Alte Bundesstr. 2,76846,Hauenstein ,Zweckverband Schienenpersonennahverkehr Rheinland-Pfalz Süd,VRN,nein,ja,7.83018,49.20123
Rheinland-Pfalz,Kaiserslautern,2600,Hauptstuhl,SHPT,5,Bahnhofstr. 15 a,66851,Hauptstuhl,Zweckverband Schienenpersonennahverkehr Rheinland-Pfalz Süd,VRN,nein,ja,7.49081,49.40159
Rheinland-Pfalz,Kaiserslautern,2667,Heinzenhausen,SHZH,7,Hauptstr. 20,67742,Heinzenhausen,Zweckverband Schienenpersonennahverkehr Rheinland-Pfalz Süd,VRN,nein,ja,7.60864,49.62553
Rheinland-Pfalz,Kaiserslautern,2737,Herxheim am Berg,RHXB,6,Hauptstr. 30,67273,Herxheim,Zweckverband Schienenpersonennahverkehr Rheinland-Pfalz Süd,VRN,nein,ja,8.18171,49.50876
Rheinland-Pfalz,Kaiserslautern,2779,Hinterweidenthal,SHWP,6,Kaltenbach 11,66999,Hinterweidenthal,Zweckverband Schienenpersonennahverkehr Rheinland-Pfalz Süd,VRN,nein,ja,7.7476,49.20132
Rheinland-Pfalz,Kaiserslautern,2780,Hinterweidenthal Ost,SHW,6,Kaltenbach 15,66999,Hinterweidenthal,Zweckverband Schienenpersonennahverkehr Rheinland-Pfalz Süd,VRN,nein,ja,7.77268,49.20265
Rheinland-Pfalz,Kaiserslautern,2792,Hirschhorn (Pfalz),SHIH,6,Weilerbacher Str. 2,67732,Hirschhorn ,Zweckverband Schienenpersonennahverkehr Rheinland-Pfalz Süd,VRN,nein,ja,7.68103,49.51564
Rheinland-Pfalz,Kaiserslautern,2868,Höhmühlbach,SHMB,7,Flurstraße 1,66509,Rieschweiler-Mühlbach,Zweckverband Schienenpersonennahverkehr Rheinland-Pfalz Süd,VRN,nein,ja,7.52588,49.24324
Rheinland-Pfalz,Kaiserslautern,2987,Imsweiler,SIM,6,Alsenzstr. 87,67808,Imsweiler,Zweckverband Schienenpersonennahverkehr Rheinland-Pfalz Süd,VRN,nein,ja,7.80436,49.59848
Rheinland-Pfalz,Kaiserslautern,2999,Insheim,RIN,6,Bahnhofstr.50,76865,Insheim,Zweckverband Schienenpersonennahverkehr Rheinland-Pfalz Süd,KVV,nein,ja,8.1393,49.13826
Rheinland-Pfalz,Kaiserslautern,3057,Jockgrim,RJO,6,Am Bahnhof 1,76751,Jockgrim,Zweckverband Schienenpersonennahverkehr Rheinland-Pfalz Süd,KVV,nein,ja,8.27276,49.09268
Rheinland-Pfalz,Kaiserslautern,3082,Kaiserslautern Hbf,SKL,2,Bahnhofstr. 1,67655,Kaiserslautern,Zweckverband Schienenpersonennahverkehr Rheinland-Pfalz Süd,VRN,ja,ja,7.76863,49.43624
Rheinland-Pfalz,Kaiserslautern,3083,Kaiserslautern Pfaffwerk,SKLP,7,Königstr. 154,67655,Kaiserslautern Pfaffwerk,Zweckverband Schienenpersonennahverkehr Rheinland-Pfalz Süd,VRN,nein,ja,7.75256,49.43496
Rheinland-Pfalz,Kaiserslautern,3084,Kaiserslautern West,SKLW,6,Lauterstraße 11,67659,Kaiserslautern,Zweckverband Schienenpersonennahverkehr Rheinland-Pfalz Süd,VRN,nein,ja,7.74875,49.451
Rheinland-Pfalz,Kaiserslautern,3100,Kandel,RKD,5,Georg-Todt-Str. 2,76870,Kandel,Zweckverband Schienenpersonennahverkehr Rheinland-Pfalz Süd,KVV,nein,ja,8.19779,49.07927
Rheinland-Pfalz,Kaiserslautern,7187,Kapellen-Drusweiler,RKPD,7,Dorfstr.44,76889,Niederhorbach,Zweckverband Schienenpersonennahverkehr Rheinland-Pfalz Süd,VRN,nein,ja,8.03195,49.10545
Rheinland-Pfalz,Kaiserslautern,7196,Kapsweyer,RKPW,7,Vogesenstr.2,76889,Kapsweyer,Zweckverband Schienenpersonennahverkehr Rheinland-Pfalz Süd,VRN,nein,ja,8.02185,49.0393
Rheinland-Pfalz,Kaiserslautern,3139,Katzweiler,SKW,7,Eisenbahnstr. 2,67734,Katzweiler,Zweckverband Schienenpersonennahverkehr Rheinland-Pfalz Süd,VRN,nein,ja,7.6996,49.50093
Rheinland-Pfalz,Kaiserslautern,3158,Kennelgarten,SKEN,6,Bahnheim 19,67663,Kaiserslautern,Zweckverband Schienenpersonennahverkehr Rheinland-Pfalz Süd,VRN,nein,ja,7.73351,49.43988
Rheinland-Pfalz,Kaiserslautern,3179,Kindsbach,SKIB,6,Eisenbahnstraße 38,66862,Kindsbach,Zweckverband Schienenpersonennahverkehr Rheinland-Pfalz Süd,VRN,nein,ja,7.61287,49.4191
Rheinland-Pfalz,Kaiserslautern,3198,Kirchheim (Weinstr),RKH,6,Bahnhofstr.1,67281,Kirchheim,Zweckverband Schienenpersonennahverkehr Rheinland-Pfalz Süd,VRN,nein,ja,8.18237,49.5371
Rheinland-Pfalz,Kaiserslautern,3296,Knöringen-Essingen,RKG,6,Bahnhofstr.7,76833,Knöringen,Zweckverband Schienenpersonennahverkehr Rheinland-Pfalz Süd,VRN,nein,ja,8.14529,49.23784
Rheinland-Pfalz,Kaiserslautern,3408,Kreimbach-Kaulbach,SKRB,7,Lauterstr. 6,67757,Kreimbach,Zweckverband Schienenpersonennahverkehr Rheinland-Pfalz Süd,VRN,nein,ja,7.63016,49.55133
Rheinland-Pfalz,Kaiserslautern,3476,Kusel,SKUS,6,Bahnhofstr. 65,66869,Kusel,Zweckverband Schienenpersonennahverkehr Rheinland-Pfalz Süd,VRN,nein,ja,7.4103,49.53783
Rheinland-Pfalz,Kaiserslautern,3498,Lambsheim,RLSH,6,Bahnhofstr. 3,67245,Lambsheim,Zweckverband Schienenpersonennahverkehr Rheinland-Pfalz Süd,VRN,nein,ja,8.28329,49.51197
Rheinland-Pfalz,Kaiserslautern,3501,Lampertsmühle-Otterbach,SLAO,6,Lauterstr. 7,67731,Otterbach,Zweckverband Schienenpersonennahverkehr Rheinland-Pfalz Süd,VRN,nein,ja,7.7298,49.48363
Rheinland-Pfalz,Kaiserslautern,3505,Landau (Pfalz) Hbf,RLA,4,Maximilianstr. 11,76829,Landau,Zweckverband Schienenpersonennahverkehr Rheinland-Pfalz Süd,VRN,nein,ja,8.12582,49.1982
Rheinland-Pfalz,Kaiserslautern,8283,Landau (Pfalz) Süd,RLAD,7,Weißenburgerstraße 10,76829,Landau (Pfalz),Zweckverband Schienenpersonennahverkehr Rheinland-Pfalz Süd,,nein,nein,8.11341,49.19034
Rheinland-Pfalz,Kaiserslautern,3506,Landau (Pfalz) West,RLW,6,Westbahnstr. 1,76829,Landau,Zweckverband Schienenpersonennahverkehr Rheinland-Pfalz Süd,VRN,nein,ja,8.10782,49.19581
Rheinland-Pfalz,Kaiserslautern,3515,Landstuhl,SLD,3,Bahnstr. 1,66849,Landstuhl,Zweckverband Schienenpersonennahverkehr Rheinland-Pfalz Süd,VRN,ja,ja,7.56611,49.4161
Rheinland-Pfalz,Kaiserslautern,3605,Lauterecken-Grumbach,SLKG,6,Bahnhofstr. 1,67742,Lauterecken,Zweckverband Schienenpersonennahverkehr Rheinland-Pfalz Süd,VRN,nein,ja,7.59119,49.65381
Rheinland-Pfalz,Kaiserslautern,3769,Lohnweiler,SLOH,6,Hauptstr. 11,67744,Lohnweiler,Zweckverband Schienenpersonennahverkehr Rheinland-Pfalz Süd,VRN,nein,ja,7.5995,49.63581
Rheinland-Pfalz,Kaiserslautern,3837,Ludwigshafen (Rhein) Hbf,RL,2,Pasadenaallee 1,67059,Ludwigshafen,Zweckverband Schienenpersonennahverkehr Rheinland-Pfalz Süd,VRN,ja,ja,8.43447,49.47789
Rheinland-Pfalz,Kaiserslautern,3839,Ludwigshafen-Oggersheim,RLO,4,Prälat-Caire-Str. 20,67071,Ludwigshafen,Zweckverband Schienenpersonennahverkehr Rheinland-Pfalz Süd,VRN,nein,ja,8.38155,49.49298
Rheinland-Pfalz,Kaiserslautern,3893,Maikammer-Kirrweiler,RMKI,6,Am Bahnhof 3,67489,Kirrweiler,Zweckverband Schienenpersonennahverkehr Rheinland-Pfalz Süd,VRN,nein,ja,8.14778,49.30599
Rheinland-Pfalz,Kaiserslautern,6226,Maximiliansau im Rüsten,RMAI,7,Pfortzer Straße 8,76744,Wörth,Zweckverband Schienenpersonennahverkehr Rheinland-Pfalz Süd,KVV,nein,ja,8.28811,49.03841
Rheinland-Pfalz,Kaiserslautern,4072,Mertesheim,RME,7,Bahnhofstr.50,67271,Mertesheim,Zweckverband Schienenpersonennahverkehr Rheinland-Pfalz Süd,VRN,nein,ja,8.13356,49.56952
Rheinland-Pfalz,Kaiserslautern,8130,Miesenbach,SRAM,7,Neuwoogstraße 36,66877,Ramstein-Miesenbach,Zweckverband Schienenpersonennahverkehr Rheinland-Pfalz Süd,VRN,nein,ja,7.54848,49.45658
Rheinland-Pfalz,Kaiserslautern,7963,Münchweiler (Alsenz),SMUE,6,Jahnstraße 5,67728,Münchweiler a. d. Alsenz,Zweckverband Schienenpersonennahverkehr Rheinland-Pfalz Süd,VRN,nein,ja,7.88624,49.55113
Rheinland-Pfalz,Kaiserslautern,4274,Münchweiler (Rodalb),SMR,6,Bahnhofstr. 1,66981,Münchweiler ,Zweckverband Schienenpersonennahverkehr Rheinland-Pfalz Süd,VRN,nein,ja,7.70364,49.22026
Rheinland-Pfalz,Kaiserslautern,4288,Mußbach,RMCH,6,Kurpfalzstr. 37,67435,Neustadt ,Zweckverband Schienenpersonennahverkehr Rheinland-Pfalz Süd,VRN,nein,ja,8.16855,49.37171
Rheinland-Pfalz,Kaiserslautern,7189,Neuburg (Rhein),RNBU,7,Bahnhofstraße 12,76776,Neuburg,Zweckverband Schienenpersonennahverkehr Rheinland-Pfalz Süd,KVV,nein,ja,8.24141,48.99269
Rheinland-Pfalz,Kaiserslautern,8199,Neustadt Süd,RND,6,Lachenerstraße 59,67434,Neustadt,Zweckverband Schienenpersonennahverkehr Rheinland-Pfalz Süd,,nein,nein,8.25027,49.3561
Rheinland-Pfalz,Kaiserslautern,4454,Neustadt (Weinstr) Hbf,RN,2,Bahnhofsplatz 6,67434,Neustadt ,Zweckverband Schienenpersonennahverkehr Rheinland-Pfalz Süd,VRN,ja,ja,11.76437,48.8013
Rheinland-Pfalz,Kaiserslautern,4511,Niedermohr,SNDM,6,Hauptstr. 7,66879,Niedermohr,Zweckverband Schienenpersonennahverkehr Rheinland-Pfalz Süd,VRN,nein,ja,7.47174,49.45849
Rheinland-Pfalz,Kaiserslautern,4665,Obermohr,SOBM,6,Bachweg 12,66879,Steinwenden,Zweckverband Schienenpersonennahverkehr Rheinland-Pfalz Süd,VRN,nein,ja,7.50347,49.45667
Rheinland-Pfalz,Kaiserslautern,4769,Olsbrücken,SOU,6,Am Bahnhof 1,67737,Olsbrücken,Zweckverband Schienenpersonennahverkehr Rheinland-Pfalz Süd,VRN,nein,ja,7.65309,49.53817
Rheinland-Pfalz,Kaiserslautern,4941,Pirmasens Hbf,SPS,5,Bahnhofstr. 50,66953,Pirmasens,Zweckverband Schienenpersonennahverkehr Rheinland-Pfalz Süd,VRN,nein,ja,7.59794,49.20582
Rheinland-Pfalz,Kaiserslautern,4942,Pirmasens Nord,SPSN,4,Biebermühler Str.,66987,Thaleischweiler-Fröschen,Zweckverband Schienenpersonennahverkehr Rheinland-Pfalz Süd,VRN,nein,ja,7.58578,49.26162
Rheinland-Pfalz,Kaiserslautern,5110,Rammelsbach,SRCH,7,Bahnhofstr. 2,66887,Rammelsbach,Zweckverband Schienenpersonennahverkehr Rheinland-Pfalz Süd,VRN,nein,ja,7.44432,49.54212
Rheinland-Pfalz,Kaiserslautern,7203,Ramsen,RRN,7,Bahnhofstr.24,67305,Ramsen,Zweckverband Schienenpersonennahverkehr Rheinland-Pfalz Süd,VRN,nein,ja,8.0214,49.53512
Rheinland-Pfalz,Kaiserslautern,5116,Ramstein,SRAS,5,Bahnhofstr. 2,66877,Ramstein,Zweckverband Schienenpersonennahverkehr Rheinland-Pfalz Süd,0,nein,ja,7.55644,49.44879
Rheinland-Pfalz,Kaiserslautern,5162,Reckweilerhof,SRWH,7,Reckweilerhof 4,67752,Wolfstein,Zweckverband Schienenpersonennahverkehr Rheinland-Pfalz Süd,VRN,nein,ja,7.60892,49.60702
Rheinland-Pfalz,Kaiserslautern,5181,Rehweiler,SRW,7,Bahnhofstr. 2,66907,Rehweiler,Zweckverband Schienenpersonennahverkehr Rheinland-Pfalz Süd,VRN,nein,ja,7.44035,49.48522
Rheinland-Pfalz,Kaiserslautern,5258,Rheinzabern,RRZA,6,Bahnhofstr.26,76764,Rheinzabern,Zweckverband Schienenpersonennahverkehr Rheinland-Pfalz Süd,KVV,nein,ja,8.27488,49.11981
Rheinland-Pfalz,Kaiserslautern,8204,Rheinzabern Alte Römerstraße,RRZU,6,Plantage,76464,Rheinzabern,Zweckverband Schienenpersonennahverkehr Rheinland-Pfalz Süd,VRN,nein,ja,8.27468,49.10761
Rheinland-Pfalz,Kaiserslautern,8203,Rheinzabern Rappengasse,RRZM,6,Rappengasse,76464,Rheinzabern,Zweckverband Schienenpersonennahverkehr Rheinland-Pfalz Süd,VRN,nein,ja,8.32712,49.16134
Rheinland-Pfalz,Kaiserslautern,5277,Rieschweiler,SRI,7,Bahnhofstr. 29,66509,Rieschweiler-Mühlbach,Zweckverband Schienenpersonennahverkehr Rheinland-Pfalz Süd,VRN,nein,ja,7.50704,49.24465
Rheinland-Pfalz,Kaiserslautern,5288,Rinnthal,RRIT,7,Bahnhofstr.18,76857,Rinnthal,Zweckverband Schienenpersonennahverkehr Rheinland-Pfalz Süd,VRN,nein,ja,7.92814,49.2171
Rheinland-Pfalz,Kaiserslautern,5301,Rockenhausen,SRC,5,Bahnhofstr. 8,67806,Rockenhausen,Zweckverband Schienenpersonennahverkehr Rheinland-Pfalz Süd,VRN,nein,ja,7.81755,49.62797
Rheinland-Pfalz,Kaiserslautern,5303,Rodalben,SROA,6,Bahnhofstr. 4,66976,Rodalben,Zweckverband Schienenpersonennahverkehr Rheinland-Pfalz Süd,VRN,nein,ja,7.63246,49.23929
Rheinland-Pfalz,Kaiserslautern,5320,Rohrbach (Pfalz),RRST,6,Jahnstr.1,76865,Rohrbach,Zweckverband Schienenpersonennahverkehr Rheinland-Pfalz Süd,VRN,nein,ja,8.14002,49.13694
Rheinland-Pfalz,Kaiserslautern,5355,Roßbach (Pfalz),SROB,6,Roßbacher Str. 42,67752,Rutsweiler an der Lauter,Zweckverband Schienenpersonennahverkehr Rheinland-Pfalz Süd,VRN,nein,ja,7.62363,49.57193
Rheinland-Pfalz,Kaiserslautern,5429,Rülzheim,RRZH,6,Bahnhofstraße 6,76761,Rülzheim,Zweckverband Schienenpersonennahverkehr Rheinland-Pfalz Süd,KVV,nein,ja,8.28733,49.15936
Rheinland-Pfalz,Kaiserslautern,8202,Rülzheim Freizeitzentrum,RRZD,6,Alte Mühlgasse,76761,Rülzheim,Zweckverband Schienenpersonennahverkehr Rheinland-Pfalz Süd,,nein,ja,8.28119,49.15254
Rheinland-Pfalz,Kaiserslautern,7200,Schaidt (Pf),RSAI,7,Vollmersweilerer Str.6,76744,Wörth,Zweckverband Schienenpersonennahverkehr Rheinland-Pfalz Süd,KVV,nein,ja,8.08026,49.06074
Rheinland-Pfalz,Kaiserslautern,5680,Schopp,SSCP,6,Bahnhofstr. 16,67707,Schopp,Zweckverband Schienenpersonennahverkehr Rheinland-Pfalz Süd,VRN,nein,ja,7.68797,49.35784
Rheinland-Pfalz,Kaiserslautern,7854,Schweighofen,RSHF,7,Speckstr.29,76889,Schweighofen,Zweckverband Schienenpersonennahverkehr Rheinland-Pfalz Süd,VRN,nein,ja,7.99677,49.0368
Rheinland-Pfalz,Kaiserslautern,5836,Siebeldingen-Birkweiler,RSIB,7,Weinstr.1,76831,Birkweiler,Zweckverband Schienenpersonennahverkehr Rheinland-Pfalz Süd,VRN,nein,ja,8.04054,49.21014
Rheinland-Pfalz,Kaiserslautern,5897,Sondernheim,RSOH,6,Germersheimer Str.14,76726,Germersheim,Zweckverband Schienenpersonennahverkehr Rheinland-Pfalz Süd,KVV,nein,ja,8.36051,49.19494
Rheinland-Pfalz,Kaiserslautern,8198,Stambach,SSTB,7,Am Höfchen 2,66497,Contwig-Stambach,Zweckverband Schienenpersonennahverkehr Rheinland-Pfalz Süd,VRN,nein,ja,7.45743,49.23864
Rheinland-Pfalz,Kaiserslautern,5984,Steinalben,SSTA,7,Bahnhofstr. 1,66851,Steinalben,Zweckverband Schienenpersonennahverkehr Rheinland-Pfalz Süd,VRN,nein,ja,7.65089,49.31533
Rheinland-Pfalz,Kaiserslautern,7461,Steinfeld (Pfalz),RSFL,7,Bahnhofstraße 60,76889,Steinfeld,Zweckverband Schienenpersonennahverkehr Rheinland-Pfalz Süd,VRN,nein,ja,8.03849,49.04523
Rheinland-Pfalz,Kaiserslautern,4342,Steinweiler,RSTE,6,An der Bahn 1,76872,Steinweiler,Zweckverband Schienenpersonennahverkehr Rheinland-Pfalz Süd,VRN,nein,ja,8.13208,49.12144
Rheinland-Pfalz,Kaiserslautern,6007,Steinwenden,SSTW,6,Bahnhofstr. 2,66879,Steinwenden,Zweckverband Schienenpersonennahverkehr Rheinland-Pfalz Süd,VRN,nein,ja,7.52475,49.4543
Rheinland-Pfalz,Kaiserslautern,6185,Thaleischweiler-Fröschen,STWF,6,Bahnhofstraße 1,66987,Thaleischweiler,Zweckverband Schienenpersonennahverkehr Rheinland-Pfalz Süd,VRN,nein,ja,7.57954,49.26393
Rheinland-Pfalz,Kaiserslautern,6193,Theisbergstegen,STN,7,Bahnhofstr. 8,66871,Theisbergstegen,Zweckverband Schienenpersonennahverkehr Rheinland-Pfalz Süd,VRN,nein,ja,7.44808,49.51913
Rheinland-Pfalz,Kaiserslautern,6367,Untersulzbach,SUSZ,6,Hauptstr. 1,67734,Sulzbachtal,Zweckverband Schienenpersonennahverkehr Rheinland-Pfalz Süd,VRN,nein,ja,7.6638,49.52256
Rheinland-Pfalz,Kaiserslautern,6435,Vogelweh,SVO,6,Kaiserstr.1,67661,Kaiserslautern,Zweckverband Schienenpersonennahverkehr Rheinland-Pfalz Süd,VRN,nein,ja,7.67445,49.43125
Rheinland-Pfalz,Kaiserslautern,6458,Wachenheim (Pfalz),RWCH,6,Schweizinger Str.1,67157,Wachenheim,Zweckverband Schienenpersonennahverkehr Rheinland-Pfalz Süd,VRN,nein,ja,8.18838,49.4397
Rheinland-Pfalz,Kaiserslautern,6484,Waldfischbach,SWAB,6,Bahnhofstr. 5,67714,Waldfischbach,Zweckverband Schienenpersonennahverkehr Rheinland-Pfalz Süd,VRN,nein,ja,7.65331,49.28891
Rheinland-Pfalz,Kaiserslautern,6627,Weisenheim (Sand),RWSS,6,Bahnhofstr. 75,67256,Weisenheim,Zweckverband Schienenpersonennahverkehr Rheinland-Pfalz Süd,VRN,nein,ja,8.25019,49.51404
Rheinland-Pfalz,Kaiserslautern,6770,Wilgartswiesen,RWSW,6,Bahnhofstr. 8,76848,Wilgartswiesen,Zweckverband Schienenpersonennahverkehr Rheinland-Pfalz Süd,VRN,nein,ja,7.88265,49.20917
Rheinland-Pfalz,Kaiserslautern,6793,Winden (Pfalz),RWND,4,Bahnhofstr. 17,76872,Winden,Zweckverband Schienenpersonennahverkehr Rheinland-Pfalz Süd,KVV,nein,ja,8.12216,49.09574
Rheinland-Pfalz,Kaiserslautern,6804,Winnweiler,SWNW,6,Bahnhofstr. 1,67722,Winnweiler,Zweckverband Schienenpersonennahverkehr Rheinland-Pfalz Süd,0,nein,ja,7.8551,49.57103
Rheinland-Pfalz,Kaiserslautern,6864,Wolfstein,SWFS,6,Bahnhofstraße 16,67752,Wolfstein,Zweckverband Schienenpersonennahverkehr Rheinland-Pfalz Süd,VRN,nein,ja,7.61023,49.58444
Rheinland-Pfalz,Kaiserslautern,6893,Wörth (Rhein),RWRT,3,Bahnhofstr. 44,76744,Wörth,Zweckverband Schienenpersonennahverkehr Rheinland-Pfalz Süd,KVV,nein,ja,8.27278,49.04601
Rheinland-Pfalz,Kaiserslautern,8171,Wörth (Rhein)-Mozartstraße,RWRD,6,Mozartstraße 21,76744,Wörth (Rhein),Zweckverband Schienenpersonennahverkehr Rheinland-Pfalz Süd,,nein,ja,8.25103,49.0551
Rheinland-Pfalz,Kaiserslautern,8205,Wörth Zügelstraße,RWRG,6,Zügelstraße 50,76744,Wörth (Rhein),Zweckverband Schienenpersonennahverkehr Rheinland-Pfalz Süd,,nein,nein,8.26162,49.05442
Rheinland-Pfalz,Kaiserslautern,7066,Zweibrücken Hbf,SZW,5,Poststr. 37,66482,Zweibrücken,Zweckverband Schienenpersonennahverkehr Rheinland-Pfalz Süd,VRN,nein,ja,7.35752,49.24687
Hessen,Kassel,2664,Alheim-Heinebach,FHEB,6,Bahnhofstr. 57,36211,Alheim,Nordhessischer VerkehrsVerbund mbH,NVV,nein,ja,9.66399,51.04549
Hessen,Kassel,65,Alsfeld (Oberhess),FAFD,5,Bahnhofstr. 12,36304,Alsfeld,Rhein-Main-Verkehrsverbund GmbH,RMV,nein,ja,9.26378,50.75012
Hessen,Kassel,150,Angersbach,FANG,6,Bahnhofstr. 46,36367,Wartenberg,Rhein-Main-Verkehrsverbund GmbH,RMV,nein,ja,9.44711,50.63075
Hessen,Kassel,282,Bad Hersfeld,FBHF,3,Bahnhofstr. 16,36251,Bad Hersfeld,Nordhessischer VerkehrsVerbund mbH,NVV,ja,ja,9.71537,50.87036
Hessen,Kassel,331,Bad Salzschlirf,FSF,6,Bahnhofstr. 42,36364,Bad Salzschlirf,Rhein-Main-Verkehrsverbund GmbH,RMV,nein,ja,9.49525,50.62735
Hessen,Kassel,348,Bad Sooden-Allendorf,FBSD,6,Am Bahnhof 1,37242,Bad Soden-Allendorf,Nordhessischer VerkehrsVerbund mbH,NVV,nein,ja,9.96899,51.26848
Hessen,Kassel,2420,Baunatal-Guntershausen,FGTH,5, Zum Bahnhof 1,34225,Baunatal-Guntershausen,Nordhessischer VerkehrsVerbund mbH,NVV,nein,ja,9.46879,51.23275
Hessen,Kassel,5224,Baunatal-Rengershausen,FREH,6,Felsengarten 1,34225,Baunatal-Rengershausen,Nordhessischer VerkehrsVerbund mbH,NVV,nein,ja,9.46909,51.25519
Hessen,Kassel,443,Bebra,FB,3,Bahnhofstraße 10,36179,Bebra,Nordhessischer VerkehrsVerbund mbH,NVV,ja,ja,9.79609,50.96854
Hessen,Kassel,784,Borken (Hess),FBOK,5,Am Bahnhof 2,34582,Borken (Hessen),Nordhessischer VerkehrsVerbund mbH,NVV,nein,ja,9.27729,51.05015
Hessen,Kassel,984,Burghaun (Kr Hünfeld),FBUH,6,Hersfelder Str. 12,36151,Burghaun  ,Rhein-Main-Verkehrsverbund GmbH,RMV,nein,ja,9.72612,50.70167
Hessen,Kassel,978,Burg-und Nieder Gemünden,FBNG,6,Bahnhofstr. 14,35329,Gemünden (Felda),Rhein-Main-Verkehrsverbund GmbH,RMV,nein,ja,9.04892,50.69147
Hessen,Kassel,2274,Edermünde-Grifte,FGRF,5,Bahnhofstraße 2,24295,Edermünde-Grifte,Nordhessischer VerkehrsVerbund mbH,NVV,nein,ja,9.44797,51.2105
Hessen,Kassel,1493,Ehringshausen (Oberhess),FEHH,6,Hauptstraße 1,35329,Gemünden (Felda),Rhein-Main-Verkehrsverbund GmbH,RMV,nein,ja,9.10107,50.70851
Hessen,Kassel,4161,Espenau-Mönchehof,FMHF,5,Bahnhofstr. 39,34314,Espenau-Mönchehof,Nordhessischer VerkehrsVerbund mbH,NVV,nein,ja,9.45577,51.39
Hessen,Kassel,88,Felsberg-Altenbrunslar,FABL,6,Quillerweg 8,34587,Felsberg,Nordhessischer VerkehrsVerbund mbH,NVV,nein,ja,9.44521,51.16597
Hessen,Kassel,2065,Felsberg-Gensungen,FGEF,6,Zur Ederau 1,34587,Felsberg,Nordhessischer VerkehrsVerbund mbH,NVV,nein,ja,9.43432,51.1303
Hessen,Kassel,6853,Felsberg-Wolfershausen,FWON,6,Kreisstraße 4,34587,Felsberg-Wolfershausen,Nordhessischer VerkehrsVerbund mbH,NVV,nein,ja,9.44574,51.18287
Hessen,Kassel,2970,Fuldatal-Ihringshausen,FIH,6,Zechenweg 1,34233,Fuldatal-Ihringshausen,Nordhessischer VerkehrsVerbund mbH,NVV,nein,ja,9.52221,51.34886
Hessen,Kassel,2250,Grebenstein,FGSN,5,Bahnhofstr. 24,34393,Grebenstein,Nordhessischer VerkehrsVerbund mbH,NVV,nein,ja,9.4196,51.44651
Hessen,Kassel,2342,Großenlüder,FGLR,6,Am Bahnhof 1,36137,Großenlüder,Rhein-Main-Verkehrsverbund GmbH,RMV,nein,ja,9.5502,50.59294
Hessen,Kassel,2440,Guxhagen,FGX,5,Dörnhagener Str. 2,34302,Guxhagen,Nordhessischer VerkehrsVerbund mbH,NVV,nein,ja,9.48235,51.20453
Hessen,Kassel,4408,Haunetal-Neukirchen,FNK,6,Bahnhofstr. 11,36166,Haunetal,Nordhessischer VerkehrsVerbund mbH,NVV,nein,ja,9.6929,50.77089
Hessen,Kassel,2825,Hofgeismar,FHFG,4,Am Bahnhof 1,34369,Hofgeismar,Nordhessischer VerkehrsVerbund mbH,NVV,nein,ja,9.39583,51.49904
Hessen,Kassel,2945,Hofgeismar-Hümme,FHMM,5,Tiefenweg 12,34369,Hofgeismar-Hümme,Nordhessischer VerkehrsVerbund mbH,NVV,nein,ja,9.40255,51.54313
Hessen,Kassel,2949,Hünfeld,FHUE,5,Bahnhofstr. 15,36088,Hünfeld,Rhein-Main-Verkehrsverbund GmbH,RMV,nein,ja,9.76341,50.67335
Hessen,Kassel,2983,Immenhausen (Hess),FIM,5,Am Bahnhof 1,34376,Immenhausen,Nordhessischer VerkehrsVerbund mbH,NVV,nein,ja,9.46513,51.42661
Hessen,Kassel,3124,Kassel Hbf,FK,2,Bahnhofsplatz 1,34117,Kassel,Nordhessischer VerkehrsVerbund mbH,NVV,nein,ja,9.48997,51.31816
Hessen,Kassel,3125,Kassel-Harleshausen,FKH,5,Wolfhager Str.323,34117,Kassel,Nordhessischer VerkehrsVerbund mbH,NVV,nein,ja,9.45067,51.33175
Hessen,Kassel,8136,Kassel-Jungfernkopf,FKJK,6,Schenkebier Stanne 49,34128,Kassel,Nordhessischer VerkehrsVerbund mbH,NVV,nein,ja,9.46171,51.33797
Hessen,Kassel,8135,Kassel-Kirchditmold,FKKD,5,Bruchstraße 1,34130,Kassel,Nordhessischer VerkehrsVerbund mbH,NVV,nein,ja,9.45095,51.32257
Hessen,Kassel,3126,Kassel-Oberzwehren,FKOZ,6,Altenbaunaer Straße 87,34177,Kassel,Nordhessischer VerkehrsVerbund mbH,NVV,nein,ja,9.45279,51.27579
Hessen,Kassel,3127,Kassel-Wilhelmshöhe,FKW,2,Willy-Brandt-Platz 1,34131,Kassel,Nordhessischer VerkehrsVerbund mbH,NVV,ja,ja,9.44618,51.31257
Hessen,Kassel,3375,Körle,FKRL,5,Bahnhofstraße 1,34327,Körle,Nordhessischer VerkehrsVerbund mbH,NVV,nein,ja,9.51496,51.17115
Hessen,Kassel,3602,Lauterbach (Hess) Nord,FLAU,6,Bahnhofstr. 102,36341,Lauterbach,Rhein-Main-Verkehrsverbund GmbH,RMV,nein,ja,9.40731,50.64351
Hessen,Kassel,3708,Liebenau (Bz Kassel),FLIB,6,Bahnhofstr. 113,34396,Liebenau,Nordhessischer VerkehrsVerbund mbH,NVV,nein,ja,9.27179,51.49137
Hessen,Kassel,1938,Ludwigsau-Friedlos,FFL,6,Hersfelder St. 15,36251,Ludwigsau-Friedlos,Nordhessischer VerkehrsVerbund mbH,NVV,nein,ja,9.74213,50.8967
Hessen,Kassel,3918,Malsfeld,FMFH,6,Am Bahnhof 3,34323,Malsfeld,Nordhessischer VerkehrsVerbund mbH,NVV,nein,ja,9.53448,51.09732
Hessen,Kassel,469,Malsfeld-Beiseförth,FBEF,6,Bahnhofstr.14,34323,Malsfeld-Beiseförth,Nordhessischer VerkehrsVerbund mbH,NVV,nein,ja,9.55402,51.08216
Hessen,Kassel,4050,Melsungen,FMLS,6,Bahnhofstr. 2,34212,Melsungen,Nordhessischer VerkehrsVerbund mbH,NVV,nein,ja,9.54662,51.12664
Hessen,Kassel,8133,Melsungen-Bartenwetzerbrücke,FMBB,6,,34212,Melsungen,Nordhessischer VerkehrsVerbund mbH,,nein,ja,9.54957,51.1277
Hessen,Kassel,5322,Melsungen-Röhrenfurth,FRFH,6,Unterdorf 2,34212,Melsungen-Röhrenfurth,Nordhessischer VerkehrsVerbund mbH,NVV,nein,ja,9.54794,51.15393
Hessen,Kassel,125,Morschen-Altmorschen,FAMO,6,Am Bahnhof 1,34326,Morschen,Nordhessischer VerkehrsVerbund mbH,NVV,nein,ja,9.6122,51.06677
Hessen,Kassel,4193,Mücke (Hessen),FMCK,6,Bahnhofstr. 102,35325,Mücke  ,Rhein-Main-Verkehrsverbund GmbH,RMV,nein,ja,9.02872,50.61715
Hessen,Kassel,4475,Nieder Ohmen,FNO,6,Kirschgartener Str. 2,35325,Mücke-Nieder Ohmen,Rhein-Main-Verkehrsverbund GmbH,RMV,nein,ja,9.0338,50.64593
Hessen,Kassel,4625,Oberbimbach,FOBA,6,Am Bahnhof 1,36137,Großenlüder-Oberbimbach,Rhein-Main-Verkehrsverbund GmbH,RMV,nein,ja,9.5502,50.59294
Hessen,Kassel,5338,Ronshausen,FRON,6,Hersfelder Str. 1,36217,Ronshausen,Nordhessischer VerkehrsVerbund mbH,NVV,nein,ja,9.85391,50.94581
Hessen,Kassel,5379,Rotenburg an der Fulda,FROF,6,Poststr. 9,36199,Rotenburg an der Fulda,Nordhessischer VerkehrsVerbund mbH,NVV,nein,ja,9.7325,50.99802
Hessen,Kassel,3747,Rotenburg an der Fulda-Lispenhausen,FLIH,6,Bahnhofstr.40,36199,Rotenburg an der Fulda,Nordhessischer VerkehrsVerbund mbH,NVV,nein,ja,9.76733,50.99054
Hessen,Kassel,5595,Schlierbach (Kr Schwalm-Eder),FSBA,6,Landsburger Str. 6,34599,Neuental-Schlierbach,Nordhessischer VerkehrsVerbund mbH,NVV,nein,ja,9.20082,50.96863
Hessen,Kassel,6740,Schwalmstadt-Wiera,FWRA,6,Zur Haltestelle 3,34613,Schwalmstadt-Wiera,Nordhessischer VerkehrsVerbund mbH,NVV,nein,ja,9.13702,50.88153
Hessen,Kassel,5867,Singlis,FSL,6,Main-Weser-Str. 6,34582,Borken (Hessen),Nordhessischer VerkehrsVerbund mbH,NVV,nein,ja,9.32407,51.05879
Hessen,Kassel,5908,Sontra,FSON,6,Bahnhofstr.30,36205,Sontra,Nordhessischer VerkehrsVerbund mbH,0,nein,ja,9.9294,51.07076
Niedersachsen,Kassel,5919,Staufenberg-Speele,FSPE,6,Bahnhofstr. 1,34355,Staufenberg-Speele,Nordhessischer VerkehrsVerbund mbH,NVV,nein,ja,9.56692,51.37604
Hessen,Kassel,6256,Treysa,FTS,4,Bahnhofstr. 1,34613,Schwalmstadt-Treysa,Nordhessischer VerkehrsVerbund mbH,NVV,ja,ja,9.18583,50.91083
Hessen,Kassel,4534,Vellmar-Niedervellmar,FNV,6, Kasseler Str. 1,34246,Vellmar-Niedervellmar,Nordhessischer VerkehrsVerbund mbH,NVV,nein,ja,9.47832,51.35526
Hessen,Kassel,4703,Vellmar-Obervellmar,FOV,4,Bahnhofstr. 41,34246,Vellmar,Nordhessischer VerkehrsVerbund mbH,NVV,nein,ja,9.4531,51.35941
Hessen,Kassel,8134,Vellmar-Osterberg/EKZ,FVOE,5,Lange Wender 7,34246,Vellmar,Nordhessischer VerkehrsVerbund mbH,NVV,nein,ja,9.46232,51.35485
Hessen,Kassel,6457,Wabern (Bz Kassel),FWAB,4,Bahnhofstr. 1,34590,Wabern,Nordhessischer VerkehrsVerbund mbH,NVV,ja,ja,9.35814,51.10348
Hessen,Kassel,5188,Wehretal-Reichensachsen,FRSA,6,Bahnhofstr.12,37287,Wehretal,Nordhessischer VerkehrsVerbund mbH,NVV,nein,ja,9.99293,51.15193
Hessen,Kassel,802,Wildeck-Bosserode,FBOS,6,Am Lehmkopf 7,36208,Wildeck-Bosserode,Nordhessischer VerkehrsVerbund mbH,NVV,nein,ja,9.99263,50.94585
Hessen,Kassel,2893,Wildeck-Hönebach,FHNB,6,Bahnhofstr. 5,36208,Wildeck-Hönebach,Nordhessischer VerkehrsVerbund mbH,NVV,nein,ja,9.94274,50.935
Hessen,Kassel,4697,Wildeck-Obersuhl,FOBS,6,Am Güterbahnhof 11,36208,Wildeck-Obersuhl,Nordhessischer VerkehrsVerbund mbH,NVV,nein,ja,10.02702,50.95119
Hessen,Kassel,6990,Zell-Romrod,FZR,7,Am Bahnhof 9,36329,Romrod,Rhein-Main-Verkehrsverbund GmbH,RMV,nein,ja,9.19949,50.7278
Hessen,Kassel,7026,Zimmersrode,FZM,6,Bahnhofstr. 28,34599,Neuental-Zimmersrode,Nordhessischer VerkehrsVerbund mbH,NVV,nein,ja,9.22345,51.00919
Rheinland-Pfalz,Koblenz,908,Ahrbrück,KBRU,6,Hauptstr.1,53506,Ahrbrück,Zweckverband Schienenpersonennahverkehr Rheinland-Pfalz Nord,VRM,nein,ja,6.97299,50.48958
Rheinland-Pfalz,Koblenz,31,Ahrweiler,KAH,6,Bahnhofstr. 5,53474,Bad Neuenahr-Ahrweiler,Zweckverband Schienenpersonennahverkehr Rheinland-Pfalz Nord,VRM,nein,ja,7.10714,50.54593
Rheinland-Pfalz,Koblenz,32,Ahrweiler Markt,KAHM,6,Alveradistr.1,53474,Bad Neuenahr-Ahrweiler,Zweckverband Schienenpersonennahverkehr Rheinland-Pfalz Nord,VRM,nein,ja,7.09387,50.54354
Rheinland-Pfalz,Koblenz,81,Altenahr,KALT,6,Altenbergerstr. 1a,53505,Altenahr,Zweckverband Schienenpersonennahverkehr Rheinland-Pfalz Nord,VRM,nein,ja,6.98861,50.5175
Rheinland-Pfalz,Koblenz,105,Altenkirchen (Westerw),KAK,6,Bahnhofstr. 1,57610,Altenkirchen ,Zweckverband Schienenpersonennahverkehr Rheinland-Pfalz Nord,VRS,nein,ja,7.63909,50.68501
Rheinland-Pfalz,Koblenz,144,Andernach,KAND,3,Kurfürstendamm 1,56626,Andernach,Zweckverband Schienenpersonennahverkehr Rheinland-Pfalz Nord,VRM,ja,ja,7.40425,50.43447
Rheinland-Pfalz,Koblenz,257,Bad Bodendorf,KBOD,6,Bahnhofstr. 4,53489,Sinzig,Zweckverband Schienenpersonennahverkehr Rheinland-Pfalz Nord,VRM,nein,ja,7.21727,50.55631
Rheinland-Pfalz,Koblenz,259,Bad Breisig,KBRE,5,Koblenzerstr.86,53498,Bad Breisig,Zweckverband Schienenpersonennahverkehr Rheinland-Pfalz Nord,0,nein,ja,7.30484,50.50424
Rheinland-Pfalz,Koblenz,271,Bad Ems,FEMS,5,Bahnhofsplatz 1,56130,Bad Ems,Zweckverband Schienenpersonennahverkehr Rheinland-Pfalz Nord,VRM,nein,ja,7.72897,50.32771
Rheinland-Pfalz,Koblenz,272,Bad Ems West,FEMW,6,Ernst Born Str. 5,56130,Bad Ems,Zweckverband Schienenpersonennahverkehr Rheinland-Pfalz Nord,VRM,nein,ja,7.70671,50.33208
Rheinland-Pfalz,Koblenz,286,Bad Hönningen,KHGB,4,Bahnhofsplatz 5,53557,Bad Hönningen,Zweckverband Schienenpersonennahverkehr Rheinland-Pfalz Nord,0,nein,ja,7.27596,50.56878
Rheinland-Pfalz,Koblenz,312,Bad Neuenahr,KNEB,5,Hauptstr. 58,53474,Bad Neuenahr,Zweckverband Schienenpersonennahverkehr Rheinland-Pfalz Nord,VRM,nein,ja,7.14415,50.54738
Rheinland-Pfalz,Koblenz,383,Balduinstein,FBAD,6,Bahnhofstr. 19,65558,Balduinstein,Zweckverband Schienenpersonennahverkehr Rheinland-Pfalz Nord,0,nein,ja,7.96807,50.34701
Rheinland-Pfalz,Koblenz,481,Bengel,SBG,6,Bahnhofstraße 1,54538,Bengel,Zweckverband Schienenpersonennahverkehr Rheinland-Pfalz Nord,0,nein,ja,7.05714,50.00994
Rheinland-Pfalz,Koblenz,585,Berzhahn,FBEZ,7,Bahnhofstr. 11,56459,Berzhahn,Zweckverband Schienenpersonennahverkehr Rheinland-Pfalz Nord,0,nein,ja,8.00557,50.53998
Rheinland-Pfalz,Koblenz,597,Betzdorf (Sieg),EBZ,3,Bahnhofstr. 1,57518,Betzdorf ,Zweckverband Schienenpersonennahverkehr Rheinland-Pfalz Nord,VRS,nein,ja,7.87032,50.78925
Rheinland-Pfalz,Koblenz,776,Boppard Hbf,KBOP,4,Heerstr. 193,56154,Boppard,Zweckverband Schienenpersonennahverkehr Rheinland-Pfalz Nord,0,ja,ja,7.58623,50.23162
Rheinland-Pfalz,Koblenz,7981,Boppard Süd,KBPS,7,Marienberger Str. 1,56154,Boppard,Zweckverband Schienenpersonennahverkehr Rheinland-Pfalz Nord,VRM,nein,ja,7.59763,50.22874
Rheinland-Pfalz,Koblenz,330,Boppard-Bad Salzig,KSAL,6,Bahnhofsplatz 1,56154,Boppard,Zweckverband Schienenpersonennahverkehr Rheinland-Pfalz Nord,0,nein,ja,7.58853,50.2312
Rheinland-Pfalz,Koblenz,940,Boppard-Buchholz,KBZ,7,Alte Römerstr. 1,56154,Boppard,Zweckverband Schienenpersonennahverkehr Rheinland-Pfalz Nord,VRM,nein,ja,7.5557,50.21054
Rheinland-Pfalz,Koblenz,1807,Boppard-Fleckertshöhe,KFLH,7,L 210,56154,Boppard,Zweckverband Schienenpersonennahverkehr Rheinland-Pfalz Nord,0,nein,ja,7.58835,50.21403
Rheinland-Pfalz,Koblenz,2794,Boppard-Hirzenach,KHIR,6,Rheinstr. 94,56154,Hirzenach-Boppard,Zweckverband Schienenpersonennahverkehr Rheinland-Pfalz Nord,0,nein,ja,7.64707,50.17552
Rheinland-Pfalz,Koblenz,809,Brachbach,EBRB,5,Bahnhofstr. 62,57555,Mudersbach,Zweckverband Schienenpersonennahverkehr Rheinland-Pfalz Nord,VRS,nein,ja,7.94146,50.82246
Rheinland-Pfalz,Koblenz,829,Braubach,KBRB,5,Friedrichstr. 15,56338,Braubach,Zweckverband Schienenpersonennahverkehr Rheinland-Pfalz Nord,0,nein,ja,7.64352,50.27412
Rheinland-Pfalz,Koblenz,853,Breitscheidt (Kr Altenkirchen),KBRS,6,Am Bahnhof 12,57539,Breitscheidt ,Zweckverband Schienenpersonennahverkehr Rheinland-Pfalz Nord,VRS,nein,ja,7.66377,50.74806
Rheinland-Pfalz,Koblenz,893,Brohl,KBRO,5,Bahnhofstr. 1,56656,Brohl,Zweckverband Schienenpersonennahverkehr Rheinland-Pfalz Nord,0,nein,ja,7.33265,50.48122
Rheinland-Pfalz,Koblenz,956,Büdingen,FBDW,7,Stöffelstr. 6,57647,Nistertal-Büdingen,Zweckverband Schienenpersonennahverkehr Rheinland-Pfalz Nord,0,nein,ja,7.89617,50.62387
Rheinland-Pfalz,Koblenz,964,Bullay DB,SBY,4,Bahnhofsplatz 1,56859,Bullay,Zweckverband Schienenpersonennahverkehr Rheinland-Pfalz Nord,0,ja,ja,7.13738,50.05434
Rheinland-Pfalz,Koblenz,1061,Cochem (Mosel),SCOC,4,Ravenéstr. 67,56812,Cochem ,Zweckverband Schienenpersonennahverkehr Rheinland-Pfalz Nord,VRM,ja,ja,7.16689,50.15254
Rheinland-Pfalz,Koblenz,1140,Dausenau,FDSU,5,Am Bahnhof 2,56132,Dausenau,Zweckverband Schienenpersonennahverkehr Rheinland-Pfalz Nord,0,nein,ja,7.72862,50.32818
Rheinland-Pfalz,Koblenz,1170,Dernau,KDEA,5,Bundesstraße 4,53507,Dernau,Zweckverband Schienenpersonennahverkehr Rheinland-Pfalz Nord,VRM,nein,ja,7.03933,50.52291
Rheinland-Pfalz,Koblenz,1171,Dernbach (Westerw),KDEB,6,Hauptstr. 85,56428,Dernbach ,Zweckverband Schienenpersonennahverkehr Rheinland-Pfalz Nord,0,nein,ja,7.78601,50.45652
Rheinland-Pfalz,Koblenz,1211,Diez,FDIZ,5,Bahnhofstr. 9,65682,Diez,Zweckverband Schienenpersonennahverkehr Rheinland-Pfalz Nord,VRM,nein,ja,8.03797,50.41385
Rheinland-Pfalz,Koblenz,1212,Diez Ost,FDIO,6,Schirlinger Str. 107,65582,Diez,Zweckverband Schienenpersonennahverkehr Rheinland-Pfalz Nord,VRM,nein,ja,8.0373,50.37822
Rheinland-Pfalz,Koblenz,4647,Dreikirchen,FOHS,7,Hauptstr. 61,56414,Dreikirchen,Zweckverband Schienenpersonennahverkehr Rheinland-Pfalz Nord,0,nein,ja,7.95858,50.44915
Rheinland-Pfalz,Koblenz,1463,Ediger-Eller,SEE,6,Am Bahnhof 1,56814,Ediger-Eller,Zweckverband Schienenpersonennahverkehr Rheinland-Pfalz Nord,0,nein,ja,7.135,50.05422
Rheinland-Pfalz,Koblenz,1487,Ehr,KEHR,7,Bahnhofsstraße 15,56283,Ehr Halsenbach,Zweckverband Schienenpersonennahverkehr Rheinland-Pfalz Nord,0,nein,ja,7.57018,50.17571
Rheinland-Pfalz,Koblenz,1583,Emmelshausen,KEMM,7,Bahnhofstr. 1,56281,Emmelshausen,Zweckverband Schienenpersonennahverkehr Rheinland-Pfalz Nord,0,nein,ja,7.55983,50.15667
Rheinland-Pfalz,Koblenz,1599,Engers,KENR,5,Mühlhofenstr. 31,56566,Neuwied,Zweckverband Schienenpersonennahverkehr Rheinland-Pfalz Nord,VRM,nein,ja,7.52878,50.45678
Rheinland-Pfalz,Koblenz,1606,Enspel,FENS,6,Bahnhofstr. 3,57647,Enspel,Zweckverband Schienenpersonennahverkehr Rheinland-Pfalz Nord,0,nein,ja,7.8832,50.61555
Rheinland-Pfalz,Koblenz,1664,Erpel (Rhein),KERP,6,Erpeler-Ley Str.5,53579,Erpel ,Zweckverband Schienenpersonennahverkehr Rheinland-Pfalz Nord,VRS,nein,ja,7.23923,50.58463
Rheinland-Pfalz,Koblenz,1726,Etzbach,EEZB,6,Bahnhofstr. 21,57539,Etzbach,Zweckverband Schienenpersonennahverkehr Rheinland-Pfalz Nord,VRS,nein,ja,7.68823,50.7812
Rheinland-Pfalz,Koblenz,1744,Fachingen (Lahn),FFAN,6,Bahnhofstr. 2,65626,Birlenbach,Zweckverband Schienenpersonennahverkehr Rheinland-Pfalz Nord,0,nein,ja,7.99231,50.36185
Rheinland-Pfalz,Koblenz,1790,Filsen,FFI,6,Brückenweg 7,56341,Filsen,Zweckverband Schienenpersonennahverkehr Rheinland-Pfalz Nord,0,nein,ja,7.58396,50.23833
Rheinland-Pfalz,Koblenz,1826,Föhren,SFOE,6,Gartenfeld 2,54343,Föhren,Zweckverband Schienenpersonennahverkehr Rheinland-Pfalz Nord,0,nein,ja,6.76648,49.85617
Rheinland-Pfalz,Koblenz,1923,Freusburg Siedlung,EFBU,6,Tulpenweg 2,57548,Kirchen,Zweckverband Schienenpersonennahverkehr Rheinland-Pfalz Nord,VRS,nein,ja,7.89542,50.81649
Rheinland-Pfalz,Koblenz,1952,Friedrichssegen,KFGN,6,Miellenerstr. 7,56112,Lahnstein,Zweckverband Schienenpersonennahverkehr Rheinland-Pfalz Nord,VRM,nein,ja,7.67937,50.3363
Nordrhein-Westfalen,Koblenz,2038,Geilhausen,KGEH,7,Prachter Str. 25,51570,Windeck,Zweckverband Nahverkehr Rheinland GmbH,VRS,nein,ja,7.63952,50.77145
Rheinland-Pfalz,Koblenz,2128,Girod,FGIR,7,Schulstr. 32,56412,Girod,Zweckverband Schienenpersonennahverkehr Rheinland-Pfalz Nord,0,nein,ja,7.8599,50.44634
Rheinland-Pfalz,Koblenz,2174,Goldhausen,FGDH,6,Bahnhofstr. 5,56412,Ruppach-Goldhausen,Zweckverband Schienenpersonennahverkehr Rheinland-Pfalz Nord,0,nein,ja,7.87241,50.46193
Rheinland-Pfalz,Koblenz,2393,Grünebach Ort,EGNO,7,Friedhofstr. 1,57520,Grünebach,Zweckverband Schienenpersonennahverkehr Rheinland-Pfalz Nord,VRS,nein,ja,7.90143,50.77799
Rheinland-Pfalz,Koblenz,2394,Grünebacher Hütte,EGNH,7,Hauptstr. 160,57520,Grünebach,Zweckverband Schienenpersonennahverkehr Rheinland-Pfalz Nord,VRS,nein,ja,7.92752,50.74544
Rheinland-Pfalz,Koblenz,2446,Hachenburg,KHAC,6,Bahnhofstr. 18,57627,Hachenburg,Zweckverband Schienenpersonennahverkehr Rheinland-Pfalz Nord,0,nein,ja,7.8227,50.66387
Rheinland-Pfalz,Koblenz,2590,Hattert,KHAT,6,Hauptstr. 2,57644,Müschenbach,Zweckverband Schienenpersonennahverkehr Rheinland-Pfalz Nord,0,nein,ja,7.7726,50.67254
Rheinland-Pfalz,Koblenz,2595,Hatzenport,SHZ,6,Oberstraße 113,56332,Hatzenport,Zweckverband Schienenpersonennahverkehr Rheinland-Pfalz Nord,VRM,nein,ja,7.41301,50.22744
Rheinland-Pfalz,Koblenz,2660,Heimersheim,KHEH,5,Landskronerstr.1,53474,Bad Neuenahr-Ahrweiler,Zweckverband Schienenpersonennahverkehr Rheinland-Pfalz Nord,VRM,nein,ja,7.17561,50.54751
Rheinland-Pfalz,Koblenz,2707,Herdorf,EHF,6,Am Bahnhof 1,57562,Herdorf,Zweckverband Schienenpersonennahverkehr Rheinland-Pfalz Nord,VRS,nein,ja,7.92762,50.72456
Rheinland-Pfalz,Koblenz,2755,Hetzerath,SHR,5,Bahnhofstr. 84,54523,Hetzerath,Zweckverband Schienenpersonennahverkehr Rheinland-Pfalz Nord,0,nein,ja,6.79866,49.87802
Rheinland-Pfalz,Koblenz,2830,Hohegrete,KHOG,7,Grubenstr. 46,57589,Pracht,Zweckverband Schienenpersonennahverkehr Rheinland-Pfalz Nord,VRS,nein,ja,7.64211,50.76282
Rheinland-Pfalz,Koblenz,2991,Ingelbach,KING,7,Kölner Str. 5,57612,Ingelbach,Zweckverband Schienenpersonennahverkehr Rheinland-Pfalz Nord,VRS,nein,ja,7.72582,50.68958
Rheinland-Pfalz,Koblenz,4225,Kaisersesch,SKAI,6,Bahnhofstr. 42,56759,Kaisersesch,Zweckverband Schienenpersonennahverkehr Rheinland-Pfalz Nord,0,nein,ja,7.1298,50.23098
Rheinland-Pfalz,Koblenz,3099,Kamp-Bornhofen,FKMP,6,Bahnhofstr. 13,56341,Kamp-Bornhofen,Zweckverband Schienenpersonennahverkehr Rheinland-Pfalz Nord,0,nein,ja,7.61822,50.22786
Rheinland-Pfalz,Koblenz,3134,Kattenes,SKTS,6, Am Bahnhof 1,56332,Löf,Zweckverband Schienenpersonennahverkehr Rheinland-Pfalz Nord,VRM,nein,ja,7.43977,50.25415
Rheinland-Pfalz,Koblenz,3140,Kaub,FKAU,5,Bahnstraße 1,56349,Kaub,Zweckverband Schienenpersonennahverkehr Rheinland-Pfalz Nord,0,nein,ja,7.76846,50.08372
Rheinland-Pfalz,Koblenz,3165,Kestert,FKES,6,Bahnhofstr. 6,56348,Kestert,Zweckverband Schienenpersonennahverkehr Rheinland-Pfalz Nord,0,nein,ja,7.64874,50.18703
Rheinland-Pfalz,Koblenz,3186,Kirchen,EKIR,5,Bahnhofstr. 19,57548,Kirchen (Sieg),Zweckverband Schienenpersonennahverkehr Rheinland-Pfalz Nord,VRS,nein,ja,7.8803,50.80652
Rheinland-Pfalz,Koblenz,3280,Kloster Marienthal,KKLM,7,Marienthaler Str. 26,57612,Hilgenroth,Zweckverband Schienenpersonennahverkehr Rheinland-Pfalz Nord,VRS,nein,ja,7.6535,50.73538
Rheinland-Pfalz,Koblenz,3287,Klotten,SKT,6,Bahnhofstr. 1,56818,Klotten,Zweckverband Schienenpersonennahverkehr Rheinland-Pfalz Nord,VRM,nein,ja,7.20075,50.16471
Rheinland-Pfalz,Koblenz,3297,Kobern-Gondorf,SKG,5,Bahnhofstr. 9,56330,Kobern-Gondorf,Zweckverband Schienenpersonennahverkehr Rheinland-Pfalz Nord,VRM,nein,ja,7.46022,50.3007
Rheinland-Pfalz,Koblenz,3299,Koblenz Hbf,KKO,2,Bahnhofsplatz 2,56068,Koblenz,Zweckverband Schienenpersonennahverkehr Rheinland-Pfalz Nord,VRM,ja,ja,7.58931,50.3508
Rheinland-Pfalz,Koblenz,8258,Koblenz Stadtmitte,KKSM,4,Pastor-Metzdorf-Weg,56068,Koblenz,Zweckverband Schienenpersonennahverkehr Rheinland-Pfalz Nord,VRM,nein,ja,7.59008,50.35719
Rheinland-Pfalz,Koblenz,3300,Koblenz-Ehrenbreitstein,KKOE,5,Hofstrasse 257,56077,Koblenz,Zweckverband Schienenpersonennahverkehr Rheinland-Pfalz Nord,0,nein,ja,7.61017,50.3598
Rheinland-Pfalz,Koblenz,2408,Koblenz-Güls,SGS,6,Am Turnerheim,56072,Koblenz-Güls,Zweckverband Schienenpersonennahverkehr Rheinland-Pfalz Nord,VRM,nein,ja,7.54992,50.33824
Rheinland-Pfalz,Koblenz,3301,Koblenz-Lützel,KKOL,5,Am Güterbahnhof 1,56070,Koblenz,Zweckverband Schienenpersonennahverkehr Rheinland-Pfalz Nord,VRM,nein,ja,7.59247,50.36631
Rheinland-Pfalz,Koblenz,3302,Koblenz-Moselweiß,SKOW,6,Bahnhofsweg 2,56072,Koblenz,Zweckverband Schienenpersonennahverkehr Rheinland-Pfalz Nord,VRM,nein,ja,7.55793,50.35018
Rheinland-Pfalz,Koblenz,3355,Königsstollen,EKSO,7,Hollertszug 8,57562,Herdorf,Zweckverband Schienenpersonennahverkehr Rheinland-Pfalz Nord,VRS,nein,ja,7.93212,50.77837
Rheinland-Pfalz,Koblenz,3386,Kottenheim,KKOH,6,Eisenbahnweg 1,56736,Kottenheim,Zweckverband Schienenpersonennahverkehr Rheinland-Pfalz Nord,0,nein,ja,7.24941,50.34903
Rheinland-Pfalz,Koblenz,3391,Kövenig,SKV,7,Moselstraße 9,54536,Kröv-Kövenig,Zweckverband Schienenpersonennahverkehr Rheinland-Pfalz Nord,0,nein,ja,7.1198,49.9812
Rheinland-Pfalz,Koblenz,3416,Kreuzberg (Ahr),KKRZ,6,Bahnhofstr. 5,53505,Altenahr,Zweckverband Schienenpersonennahverkehr Rheinland-Pfalz Nord,VRM,nein,ja,6.97803,50.50643
Rheinland-Pfalz,Koblenz,3435,Kruft,KKRF,6,Bahnhofstr. 20,56642,Kruft,Zweckverband Schienenpersonennahverkehr Rheinland-Pfalz Nord,0,nein,ja,7.33831,50.3907
Rheinland-Pfalz,Koblenz,3540,Langenhahn,FLAH,6,Bahnhofstr. 3,56459,Langenhahn,Zweckverband Schienenpersonennahverkehr Rheinland-Pfalz Nord,0,nein,ja,7.91593,50.58662
Rheinland-Pfalz,Koblenz,3594,Laurenburg (Lahn),FLBG,6,Bahnhof Laurenburg,56370,Gutenacker,Zweckverband Schienenpersonennahverkehr Rheinland-Pfalz Nord,0,nein,ja,7.90577,50.32955
Rheinland-Pfalz,Koblenz,3614,Lehmen,SLE,6,Fährstraße 1,56332,Lehmen,Zweckverband Schienenpersonennahverkehr Rheinland-Pfalz Nord,VRM,nein,ja,7.4549,50.28428
Rheinland-Pfalz,Koblenz,3677,Leubsdorf (Rhein),KLEU,6,Hauptstraße 1,53547,Leubsdorf ,Zweckverband Schienenpersonennahverkehr Rheinland-Pfalz Nord,0,nein,ja,7.2756,50.58669
Rheinland-Pfalz,Koblenz,3687,Leutesdorf (Rhein),KLET,5,August Bungert Allee 1,56599,Leutesdorf ,Zweckverband Schienenpersonennahverkehr Rheinland-Pfalz Nord,0,nein,ja,7.39401,50.44619
Rheinland-Pfalz,Koblenz,3744,Linz (Rhein),KLI,4,Bahnhofstr. 1,53545,Linz ,Zweckverband Schienenpersonennahverkehr Rheinland-Pfalz Nord,VRS,nein,ja,7.35199,50.5953
Rheinland-Pfalz,Koblenz,3761,Löf,SLF,6,Bahnhofstr. 1,56332,Löf,Zweckverband Schienenpersonennahverkehr Rheinland-Pfalz Nord,VRM,nein,ja,7.44239,50.23415
Rheinland-Pfalz,Koblenz,4008,Mayen Ost,KMYO,6,Ostbahnhofstr. 83,56727,Mayen,Zweckverband Schienenpersonennahverkehr Rheinland-Pfalz Nord,VRM,nein,ja,7.24011,50.32873
Rheinland-Pfalz,Koblenz,4009,Mayen West,KMYW,6,Westbahnhofstr. 29,56727,Mayen,Zweckverband Schienenpersonennahverkehr Rheinland-Pfalz Nord,0,nein,ja,7.21412,50.3284
Rheinland-Pfalz,Koblenz,4010,Mayschoß,KMAY,7,An der Bundesstr. 47,53508,Mayschoß,Zweckverband Schienenpersonennahverkehr Rheinland-Pfalz Nord,VRM,nein,ja,7.00968,50.51802
Rheinland-Pfalz,Koblenz,4509,Mendig,KNME,6,Bahnstr. 5,56743,Mendig,Zweckverband Schienenpersonennahverkehr Rheinland-Pfalz Nord,VRM,nein,ja,7.28147,50.37154
Rheinland-Pfalz,Koblenz,4103,Miesenheim,KMIE,6,Bahnhofstr. 31,56626,Miesenheim Andernach,Zweckverband Schienenpersonennahverkehr Rheinland-Pfalz Nord,0,nein,ja,7.39153,50.39171
Rheinland-Pfalz,Koblenz,654,Monreal,SML,7,Bahnhofstr. 58,56729,Monreal,Zweckverband Schienenpersonennahverkehr Rheinland-Pfalz Nord,,nein,ja,7.15284,50.2961
Rheinland-Pfalz,Koblenz,4169,Montabaur,FMT,4,Staudter Str. 1,56410,Montabaur,Zweckverband Schienenpersonennahverkehr Rheinland-Pfalz Nord,VRM,ja,ja,7.82794,50.45373
Rheinland-Pfalz,Koblenz,4186,Moselkern,SMK,6,Bahnhofstraße 1,56254,Moselkern,Zweckverband Schienenpersonennahverkehr Rheinland-Pfalz Nord,VRM,nein,ja,7.40843,50.22609
Rheinland-Pfalz,Koblenz,4194,Müden (Mosel),SMD,6,Fährstraße 1,56254,Müden ,Zweckverband Schienenpersonennahverkehr Rheinland-Pfalz Nord,VRM,nein,ja,7.33931,50.18477
Rheinland-Pfalz,Koblenz,4195,Mudersbach,EMUD,6,Brückenstr. 1,57555,Mudersbach,Zweckverband Schienenpersonennahverkehr Rheinland-Pfalz Nord,VRS,nein,ja,7.95201,50.8281
Rheinland-Pfalz,Koblenz,4298,Namedy,KNAM,6,Schloßstr.1,56626,Andernach,Zweckverband Schienenpersonennahverkehr Rheinland-Pfalz Nord,0,nein,ja,7.36252,50.45735
Rheinland-Pfalz,Koblenz,4302,Nassau (Lahn),FNAS,5,Bahnhofsplatz 1,56377,Nassau ,Zweckverband Schienenpersonennahverkehr Rheinland-Pfalz Nord,0,nein,ja,7.7294,50.32774
Rheinland-Pfalz,Koblenz,4326,Neef,SNF,6,Petersbergstr. 6,56858,Neef,Zweckverband Schienenpersonennahverkehr Rheinland-Pfalz Nord,0,nein,ja,7.1391,50.09141
Rheinland-Pfalz,Koblenz,4464,Neuwied,KNE,3,Augustastr. 33,56564,Neuwied,Zweckverband Schienenpersonennahverkehr Rheinland-Pfalz Nord,0,nein,ja,7.47025,50.43113
Rheinland-Pfalz,Koblenz,4493,Niedererbach,FNIB,7,Bornstr. 2,56412,Niedererbach,Zweckverband Schienenpersonennahverkehr Rheinland-Pfalz Nord,0,nein,ja,7.97483,50.4263
Rheinland-Pfalz,Koblenz,4501,Niederhövels,ENDV,6,Am Bahnhof 15,57539,Hövels,Zweckverband Schienenpersonennahverkehr Rheinland-Pfalz Nord,VRS,nein,ja,7.7884,50.78644
Rheinland-Pfalz,Koblenz,4503,Niederlahnstein,KNL,4,Koblenzer Str. 1,56112,Lahnstein,Zweckverband Schienenpersonennahverkehr Rheinland-Pfalz Nord,0,nein,ja,7.59996,50.31654
Rheinland-Pfalz,Koblenz,4521,Niederschelden,ENDN,5,Kölner Str. 8,57555,Mudersbach,Zweckverband Schienenpersonennahverkehr Rheinland-Pfalz Nord,VRS,nein,ja,7.96109,50.83749
Rheinland-Pfalz,Koblenz,4555,Nievern,FNIV,6,Bahnhofstr. 23,56132,Nievern,Zweckverband Schienenpersonennahverkehr Rheinland-Pfalz Nord,0,nein,ja,7.68135,50.33735
Rheinland-Pfalz,Koblenz,1620,Nistertal-Bad Marienberg,FERW,6,Bahnhofstr. 2,57647,Nistertal,Zweckverband Schienenpersonennahverkehr Rheinland-Pfalz Nord,0,nein,ja,7.90101,50.63224
Rheinland-Pfalz,Koblenz,4637,Obererbach,KOE,7,Hauptstr. 72,57612,Obererbach (Westerwald),Zweckverband Schienenpersonennahverkehr Rheinland-Pfalz Nord,VRS,nein,ja,7.71687,50.70309
Rheinland-Pfalz,Koblenz,4659,Oberlahnstein,KOL,5,Bürgermeister-Müller-Str. 2,56112,Lahnstein,Zweckverband Schienenpersonennahverkehr Rheinland-Pfalz Nord,0,nein,ja,7.60442,50.29972
Rheinland-Pfalz,Koblenz,4673,Obernhof (Lahn),FOBH,6,Bahnhofstr. 2,56379,Laurenburg,Zweckverband Schienenpersonennahverkehr Rheinland-Pfalz Nord,0,nein,ja,7.85243,50.31543
Rheinland-Pfalz,Koblenz,4711,Oberwesel,FOBW,5,Mainzerstr. 1,55430,Oberwesel,Zweckverband Schienenpersonennahverkehr Rheinland-Pfalz Nord,0,nein,ja,7.73125,50.10439
Rheinland-Pfalz,Koblenz,4713,Oberwinter,KOWI,5,Hauptstr. 27,53424,Remagen,Zweckverband Schienenpersonennahverkehr Rheinland-Pfalz Nord,0,nein,ja,7.20799,50.61149
Rheinland-Pfalz,Koblenz,4800,Osterspai,KOSS,6,Bahnhofstr. 13,56340,Osterspai,Zweckverband Schienenpersonennahverkehr Rheinland-Pfalz Nord,0,nein,ja,7.61613,50.24522
Rheinland-Pfalz,Koblenz,4948,Plaidt,KPL,6,Am Bahnhof 4,56637,Plaidt,Zweckverband Schienenpersonennahverkehr Rheinland-Pfalz Nord,0,nein,ja,7.39307,50.39582
Rheinland-Pfalz,Koblenz,4987,Pommern (Mosel),SPOM,6,Bahnhofstraße 1,56829,Pommern ,Zweckverband Schienenpersonennahverkehr Rheinland-Pfalz Nord,VRM,nein,ja,7.26987,50.16957
Rheinland-Pfalz,Koblenz,5153,Rech,KREC,6,Am Herrenberg 1,53506,Rech,Zweckverband Schienenpersonennahverkehr Rheinland-Pfalz Nord,VRM,nein,ja,7.03604,50.5151
Rheinland-Pfalz,Koblenz,5198,Reil DB,SREI,7,Kaiserstr. 3,56861,Reil / Mosel,Zweckverband Schienenpersonennahverkehr Rheinland-Pfalz Nord,0,nein,ja,7.11353,50.02507
Rheinland-Pfalz,Koblenz,5214,Remagen,KRE,3,Maisons-Laffitte-Platz 2,53424,Remagen,Zweckverband Schienenpersonennahverkehr Rheinland-Pfalz Nord,VRM,ja,ja,7.22971,50.57771
Rheinland-Pfalz,Koblenz,5250,Rheinbrohl,KRBR,5,Hauptstr. 1,56598,Rheinbrohl,Zweckverband Schienenpersonennahverkehr Rheinland-Pfalz Nord,0,nein,ja,7.32821,50.4987
Rheinland-Pfalz,Koblenz,5259,Rhens,KRHE,6,Am Bahnhof 4,56321,Rhens,Zweckverband Schienenpersonennahverkehr Rheinland-Pfalz Nord,0,nein,ja,7.61979,50.28097
Rheinland-Pfalz,Koblenz,5328,Rolandseck,KROL,6,Freiligrahtstr.1,53424,Remagen,Zweckverband Schienenpersonennahverkehr Rheinland-Pfalz Nord,0,nein,ja,7.20799,50.63034
Rheinland-Pfalz,Koblenz,5381,Rotenhain,FRTN,6,Bahnhofstr. 11,56459,Stockum-Püschen,Zweckverband Schienenpersonennahverkehr Rheinland-Pfalz Nord,0,nein,ja,7.89917,50.6047
Rheinland-Pfalz,Koblenz,1293,Salmtal,SSMT,6,Neuer Bahnhof 1,54528,Salmtal,Zweckverband Schienenpersonennahverkehr Rheinland-Pfalz Nord,,nein,ja,6.83691,49.92215
Rheinland-Pfalz,Koblenz,5511,Sassenroth,ESAS,7,Auf dem Sann 6,57562,Herdorf,Zweckverband Schienenpersonennahverkehr Rheinland-Pfalz Nord,VRS,nein,ja,7.91655,50.7719
Rheinland-Pfalz,Koblenz,5561,Scheuerfeld (Sieg),ESCF,5,Bahnhofstr. 1,57584,Scheuerfeld ,Zweckverband Schienenpersonennahverkehr Rheinland-Pfalz Nord,VRS,nein,ja,7.83645,50.79106
Rheinland-Pfalz,Koblenz,5739,Schweich DB,SSWE,5, Am Bahnhof 1,54338,Schweich,Zweckverband Schienenpersonennahverkehr Rheinland-Pfalz Nord,0,nein,ja,6.74265,49.83122
Rheinland-Pfalz,Koblenz,5800,Sehlem (Kr Wittlich),SSE,6,Bahnhofsstraße 62,54518,Sehlem,Zweckverband Schienenpersonennahverkehr Rheinland-Pfalz Nord,0,nein,ja,6.82416,49.90732
Rheinland-Pfalz,Koblenz,5848,Siershahn,KSIH,6,Bahnhofstr. 18,56427,Siershahn,Zweckverband Schienenpersonennahverkehr Rheinland-Pfalz Nord,0,nein,ja,7.77115,50.48579
Rheinland-Pfalz,Koblenz,5871,Sinzig (Rhein),KSIZ,4,Barbarossastr. 1,53489,Sinzig ,Zweckverband Schienenpersonennahverkehr Rheinland-Pfalz Nord,SaarVV,nein,ja,7.25807,50.54663
Rheinland-Pfalz,Koblenz,5917,Spay,KSPA,6,In der Wesser 1,56322,Spay,Zweckverband Schienenpersonennahverkehr Rheinland-Pfalz Nord,0,nein,ja,7.64586,50.25505
Rheinland-Pfalz,Koblenz,5939,St. Goar,FSGO,6,Oberstr. 32,56329,St. Goar,Zweckverband Schienenpersonennahverkehr Rheinland-Pfalz Nord,0,nein,ja,7.7149,50.15031
Rheinland-Pfalz,Koblenz,5940,St. Goarshausen,FSGH,6,Bahnhofstr. 34,56346,St. Goarshausen,Zweckverband Schienenpersonennahverkehr Rheinland-Pfalz Nord,0,nein,ja,7.71424,50.15584
Rheinland-Pfalz,Koblenz,5992,Steinefrenz,FSFZ,6,Am Bahnhof 1,56414,Steinefrenz,Zweckverband Schienenpersonennahverkehr Rheinland-Pfalz Nord,0,nein,ja,7.94414,50.44921
Rheinland-Pfalz,Koblenz,6204,Thür,KTH,7,Niedermendigerstr. 17,56743,Thür,Zweckverband Schienenpersonennahverkehr Rheinland-Pfalz Nord,0,nein,ja,7.27638,50.35736
Rheinland-Pfalz,Koblenz,6232,Traben-Trarbach DB,STT,7,Kaiserstr. 1,56841,Traben-Trarbach,Zweckverband Schienenpersonennahverkehr Rheinland-Pfalz Nord,0,nein,ja,7.12075,49.95011
Rheinland-Pfalz,Koblenz,6250,Treis-Karden,STK,5,St. Castor Str. 89,56253,Treis-Karden,Zweckverband Schienenpersonennahverkehr Rheinland-Pfalz Nord,VRM,nein,ja,7.29954,50.18028
Rheinland-Pfalz,Koblenz,6334,Unkel,KUN,5,Siebebgebirgsstr. 2,53572,Unkel,Zweckverband Schienenpersonennahverkehr Rheinland-Pfalz Nord,VRS,nein,ja,7.21947,50.6027
Rheinland-Pfalz,Koblenz,6338,Unnau-Korb,FUKO,7,Bahnhofstr. 10,57648,Unnau,Zweckverband Schienenpersonennahverkehr Rheinland-Pfalz Nord,0,nein,ja,7.88925,50.65414
Rheinland-Pfalz,Koblenz,5137,Urmersbach,SURM,7,Im Acker 1,56761,Urmersbach,Zweckverband Schienenpersonennahverkehr Rheinland-Pfalz Nord,0,nein,ja,7.13108,50.25571
Rheinland-Pfalz,Koblenz,6374,Urmitz,KUR,6,Eisenbahnstr.2,56218,Mühlheim-Kärlich,Zweckverband Schienenpersonennahverkehr Rheinland-Pfalz Nord,VRM,nein,ja,7.50913,50.40233
Rheinland-Pfalz,Koblenz,8137,Urmitz Rheinbrücke,KURR,6,Hauptstraße 1,56220,Urmitz/Rhein,Zweckverband Schienenpersonennahverkehr Rheinland-Pfalz Nord,VRM,nein,ja,7.5243,50.41688
Rheinland-Pfalz,Koblenz,6378,Ürzig DB,SUG,6,Bahnhofstr. 5,54539,Ürzig,Zweckverband Schienenpersonennahverkehr Rheinland-Pfalz Nord,0,nein,ja,6.93938,49.97242
Rheinland-Pfalz,Koblenz,6392,Vallendar,KVA,6,Rheinstr. 89,56179,Vallendar,Zweckverband Schienenpersonennahverkehr Rheinland-Pfalz Nord,0,nein,ja,7.61052,50.39966
Rheinland-Pfalz,Koblenz,6517,Walporzheim,KWAP,6,Prümerstr. 20,53474,Bad Neuenahr-Ahrweiler,Zweckverband Schienenpersonennahverkehr Rheinland-Pfalz Nord,VRM,nein,ja,7.0764,50.53149
Rheinland-Pfalz,Koblenz,6638,Weißenthurm,KWEH,5,Bahnhofstr. 5,56575,Weißenthurm,Zweckverband Schienenpersonennahverkehr Rheinland-Pfalz Nord,VRM,nein,ja,7.45872,50.41622
Rheinland-Pfalz,Koblenz,6710,Westerburg,FWBG,6,Bahnhofstr. 46,56457,Westerburg,Zweckverband Schienenpersonennahverkehr Rheinland-Pfalz Nord,0,nein,ja,7.96784,50.55804
Rheinland-Pfalz,Koblenz,6779,Willmenrod,FWLM,7,Bahnhofsstr. 22,56459,Willmenrod,Zweckverband Schienenpersonennahverkehr Rheinland-Pfalz Nord,0,nein,ja,7.98564,50.53925
Rheinland-Pfalz,Koblenz,6802,Winningen (Mosel),SWI,6,Bahnhofstr. 9a,56333,Winningen ,Zweckverband Schienenpersonennahverkehr Rheinland-Pfalz Nord,VRM,nein,ja,7.52359,50.31632
Rheinland-Pfalz,Koblenz,6816,Wirges,KWIR,7,Am Bahndamm 102,56422,Wirges,Zweckverband Schienenpersonennahverkehr Rheinland-Pfalz Nord,0,nein,ja,7.78548,50.46756
Rheinland-Pfalz,Koblenz,6819,Wissen (Sieg),EWIN,5,Bahnhofstraße 2,57537,Wissen ,Zweckverband Schienenpersonennahverkehr Rheinland-Pfalz Nord,VRS,nein,ja,7.73933,50.78257
Rheinland-Pfalz,Koblenz,6834,Wittlich Hbf,SWIH,4,Bahnhofstr. 8,54516,Wittlich,Zweckverband Schienenpersonennahverkehr Rheinland-Pfalz Nord,0,ja,ja,6.9444,49.97372
Rheinland-Pfalz,Mainz,44,Albig,FAG,6,Bahnhofstr. 1,55234,Albig,Zweckverband Schienenpersonennahverkehr Rheinland-Pfalz Süd,0,nein,ja,8.19064,49.80219
Rheinland-Pfalz,Mainz,66,Alsheim,FAHM,5,Bahnhofsstraße 1,67577,Alsheim,Zweckverband Schienenpersonennahverkehr Rheinland-Pfalz Süd,VRN,nein,ja,8.34041,49.76553
Rheinland-Pfalz,Mainz,84,Altenbamberg,SAB,6,Hauptstr. 43,55585,Altenbamberg,Zweckverband Schienenpersonennahverkehr Rheinland-Pfalz Süd,0,nein,ja,7.83164,49.78587
Rheinland-Pfalz,Mainz,133,Alzey,FALZ,3,Bahnhofstr. 30,55232,Alzey,Zweckverband Schienenpersonennahverkehr Rheinland-Pfalz Süd,VRN,nein,ja,8.10833,49.74861
Rheinland-Pfalz,Mainz,7531,Alzey Süd,FAZS,6,Wormser Str.,55232,Alzey,Zweckverband Schienenpersonennahverkehr Rheinland-Pfalz Süd,VRN,nein,ja,8.12012,49.73559
Rheinland-Pfalz,Mainz,175,Armsheim,FARM,5,Bahnhofstr. 6,55288,Armsheim,Zweckverband Schienenpersonennahverkehr Rheinland-Pfalz Süd,RNN,nein,ja,8.05801,49.808
Rheinland-Pfalz,Mainz,240,Bacharach,FBCH,4,Mainzer Str. 11,55422,Bacharach,Zweckverband Schienenpersonennahverkehr Rheinland-Pfalz Süd,RNN,nein,ja,7.76902,50.05654
Rheinland-Pfalz,Mainz,296,Bad Kreuznach,SBKN,3,Europaplatz 25,55543,Bad Kreuznach,Zweckverband Schienenpersonennahverkehr Rheinland-Pfalz Süd,RNN,nein,ja,7.86597,49.84392
Rheinland-Pfalz,Mainz,307,Bad Münster am Stein,SBMS,4,Berliner Str. 20,55583,Bad Münster am Stein,Zweckverband Schienenpersonennahverkehr Rheinland-Pfalz Süd,0,nein,ja,7.84766,49.81309
Rheinland-Pfalz,Mainz,5875,Bad Sobernheim,SSOB,5,Bahnstr. 1,55566,Bad Sobernheim,Zweckverband Schienenpersonennahverkehr Rheinland-Pfalz Süd,RNN,nein,ja,7.64979,49.783
Rheinland-Pfalz,Mainz,649,Bingen (Rhein) Hbf,FBGK,4,Bingerbrücker Straße 1,55411,Bingen ,Zweckverband Schienenpersonennahverkehr Rheinland-Pfalz Süd,RNN,ja,ja,7.88868,49.96818
Rheinland-Pfalz,Mainz,650,Bingen (Rhein) Stadt,FBGN,4,Espenschiedstr. 1,55411,Bingen ,Zweckverband Schienenpersonennahverkehr Rheinland-Pfalz Süd,RMV,nein,ja,7.90328,49.96967
Rheinland-Pfalz,Mainz,651,Bingen-Gaulsheim,FBGG,6,Mainzer Str. 15,55411,Bingen-Gaulsheim,Zweckverband Schienenpersonennahverkehr Rheinland-Pfalz Süd,0,nein,ja,7.91551,49.96936
Rheinland-Pfalz,Mainz,739,Bodenheim,FBOD,4,Bahnhofsplatz 1,55294,Bodenheim,Zweckverband Schienenpersonennahverkehr Rheinland-Pfalz Süd,VRN,nein,ja,8.31114,49.93035
Rheinland-Pfalz,Mainz,881,Bretzenheim (Nahe),SBRH,6,Bahnhofstr. 14,55559,Bretzenheim ,Zweckverband Schienenpersonennahverkehr Rheinland-Pfalz Süd,0,nein,ja,7.89842,49.87453
Rheinland-Pfalz,Mainz,954,Budenheim,FBUD,5,Mainzer Str. 15,55257,Budenheim,Zweckverband Schienenpersonennahverkehr Rheinland-Pfalz Süd,0,nein,ja,8.1735,50.02689
Rheinland-Pfalz,Mainz,8252,Dienheim,FDHM,6,,,,Zweckverband Schienenpersonennahverkehr Rheinland-Pfalz Süd,,nein,nein,,
Rheinland-Pfalz,Mainz,1613,Eppelsheim (Rheinhess),FEPP,6,Bahnhofstr. 1,55234,Eppelsheim ,Zweckverband Schienenpersonennahverkehr Rheinland-Pfalz Süd,VRN,nein,ja,8.16322,49.70011
Rheinland-Pfalz,Mainz,1800,Fischbach-Weierbach,SFWB,6,Weierbacherstr. 1,55743,Idar-Oberstein,Zweckverband Schienenpersonennahverkehr Rheinland-Pfalz Süd,RNN,nein,ja,7.40613,49.73908
Rheinland-Pfalz,Mainz,2019,Gau Algesheim,FGAL,4,Bahnhofstr. 1,55435,Gau Algesheim,Zweckverband Schienenpersonennahverkehr Rheinland-Pfalz Süd,RNN,nein,ja,8.01469,49.95925
Rheinland-Pfalz,Mainz,2020,Gau Bickelheim,FGBM,6,Bahnhofstr. 31,55599,Gau Bickelheim,Zweckverband Schienenpersonennahverkehr Rheinland-Pfalz Süd,0,nein,ja,8.02175,49.83986
Rheinland-Pfalz,Mainz,2064,Gensingen-Horrweiler,FGHO,5,Alexander-Bretz-Straße,55457,Gensingen,Zweckverband Schienenpersonennahverkehr Rheinland-Pfalz Süd,RNN,nein,ja,7.93775,49.89764
Rheinland-Pfalz,Mainz,2417,Gundersheim (Rheinhess),FGUH,7,Bahnhofstr. 32,67598,Gundersheim ,Zweckverband Schienenpersonennahverkehr Rheinland-Pfalz Süd,VRN,nein,ja,8.19828,49.69005
Rheinland-Pfalz,Mainz,2419,Guntersblum,FGUB,5,Wormserstr. 1,67583,Guntersblum,Zweckverband Schienenpersonennahverkehr Rheinland-Pfalz Süd,0,nein,ja,8.34928,49.79516
Rheinland-Pfalz,Mainz,2644,Heidesheim (Rheinhess),FHEI,5,Bahnhofstr. 27,55262,Heidesheim ,Zweckverband Schienenpersonennahverkehr Rheinland-Pfalz Süd,RNN,nein,ja,8.11124,49.99676
Rheinland-Pfalz,Mainz,2658,Heimbach (Nahe),SHB,6,Am alten Bahnhof,55779,Heimbach ,Zweckverband Schienenpersonennahverkehr Rheinland-Pfalz Süd,0,nein,ja,6.50211,50.57179
Rheinland-Pfalz,Mainz,2811,Hochstätten (Pfalz),SHST,6,An der B 48,55585,Hochstätten,Zweckverband Schienenpersonennahverkehr Rheinland-Pfalz Süd,0,nein,ja,9.31065,50.47282
Rheinland-Pfalz,Mainz,2812,Hochstetten (Nahe),SHS,6,Bahnhofstr. 1,55606,Hochstetten ,Zweckverband Schienenpersonennahverkehr Rheinland-Pfalz Süd,RNN,nein,ja,7.46223,49.78577
Rheinland-Pfalz,Mainz,7715,Hohensülzen,FHSU,7,Bahnhofstr. 25,67591,Hohensülzen,Zweckverband Schienenpersonennahverkehr Rheinland-Pfalz Süd,VRN,nein,ja,8.22072,49.61902
Rheinland-Pfalz,Mainz,2905,Hoppstädten (Nahe),SHPS,6,Nahestr. 1,55768,Hoppstädten ,Zweckverband Schienenpersonennahverkehr Rheinland-Pfalz Süd,0,nein,ja,7.19597,49.61561
Rheinland-Pfalz,Mainz,2964,Idar-Oberstein,SIDO,4,Bahnhofstr. 20,55743,Idar-Oberstein,Zweckverband Schienenpersonennahverkehr Rheinland-Pfalz Süd,0,nein,ja,7.32067,49.6994
Rheinland-Pfalz,Mainz,2992,Ingelheim,FIL,4,Bahnhofstr. 1,55218,Ingelheim,Zweckverband Schienenpersonennahverkehr Rheinland-Pfalz Süd,RNN,nein,ja,8.05396,49.97554
Rheinland-Pfalz,Mainz,3208,Kirn,SKR,5,Bahnhofstr. 14,55606,Kirn,Zweckverband Schienenpersonennahverkehr Rheinland-Pfalz Süd,RNN,nein,ja,7.51113,49.79935
Rheinland-Pfalz,Mainz,3209,Kirnsulzbach,SKRS,6,Odernburgerstr. 1,55606,Kirn,Zweckverband Schienenpersonennahverkehr Rheinland-Pfalz Süd,0,nein,ja,7.46089,49.78966
Rheinland-Pfalz,Mainz,3240,Klein Winternheim-Ober Olm,FKWO,6,Am alten Bahnhof 1,55270,Klein Winternheim,Zweckverband Schienenpersonennahverkehr Rheinland-Pfalz Süd,0,nein,ja,8.20777,49.93989
Rheinland-Pfalz,Mainz,3430,Kronweiler,SKRO,6,Bahnhofstr. 1,55767,Kronweiler,Zweckverband Schienenpersonennahverkehr Rheinland-Pfalz Süd,0,nein,ja,7.32317,49.70027
Rheinland-Pfalz,Mainz,3545,Langenlonsheim,SLN,6,Naheweinstr. 184,55450,Langenlonsheim,Zweckverband Schienenpersonennahverkehr Rheinland-Pfalz Süd,RNN,nein,ja,7.89962,49.90159
Rheinland-Pfalz,Mainz,3570,Laubenheim (Nahe),SLAU,6,Naheweinstr. 184,55452,Laubenheim ,Zweckverband Schienenpersonennahverkehr Rheinland-Pfalz Süd,0,nein,ja,7.83325,49.90047
Rheinland-Pfalz,Mainz,3898,Mainz Hbf,FMZ,2,Bahnhofplatz 1,55116,Mainz,Zweckverband Schienenpersonennahverkehr Rheinland-Pfalz Süd,RMV,ja,ja,8.25865,50.00118
Rheinland-Pfalz,Mainz,3899,Mainz Nord,FMN,6,Rheinallee 160,55120,Mainz,Zweckverband Schienenpersonennahverkehr Rheinland-Pfalz Süd,RMV,nein,ja,8.24961,50.01823
Rheinland-Pfalz,Mainz,3900,Mainz Römisches Theater,FMS,3,Holzhofstr. 1a,55116,Mainz,Zweckverband Schienenpersonennahverkehr Rheinland-Pfalz Süd,RMV,nein,ja,8.27873,49.99376
Rheinland-Pfalz,Mainz,3902,Mainz-Gonsenheim,FMGO,6,An der Ochsenwiese 12,55124,Mainz,Zweckverband Schienenpersonennahverkehr Rheinland-Pfalz Süd,RMV,nein,ja,8.21498,49.99792
Rheinland-Pfalz,Mainz,3905,Mainz-Laubenheim,FML,5,Oppenheimer Str.,55130,Mainz,Zweckverband Schienenpersonennahverkehr Rheinland-Pfalz Süd,RMV,nein,ja,8.31416,49.96774
Rheinland-Pfalz,Mainz,3906,Mainz-Marienborn,FMMB,7,Achardstraße 1,55127,Mainz-Marienborn,Zweckverband Schienenpersonennahverkehr Rheinland-Pfalz Süd,RMV,nein,ja,8.22138,49.96202
Rheinland-Pfalz,Mainz,3907,Mainz-Mombach,FMM,6,Quellenstr. 20 a,55120,Mainz,Zweckverband Schienenpersonennahverkehr Rheinland-Pfalz Süd,RMV,nein,ja,8.24772,49.98811
Rheinland-Pfalz,Mainz,3992,Martinstein,SMSO,6,Hauptstr. 81,55627,Martinstein,Zweckverband Schienenpersonennahverkehr Rheinland-Pfalz Süd,RNN,nein,ja,7.53653,49.80417
Rheinland-Pfalz,Mainz,4082,Mettenheim,FMET,6,Bahnhofstr. 1,67582,Mettenheim,Zweckverband Schienenpersonennahverkehr Rheinland-Pfalz Süd,VRN,nein,ja,8.3267,49.73999
Rheinland-Pfalz,Mainz,4168,Monsheim,FMSH,5,Bahnhofstr. 28,67590,Monsheim,Zweckverband Schienenpersonennahverkehr Rheinland-Pfalz Süd,0,nein,ja,8.20849,49.6337
Rheinland-Pfalz,Mainz,4170,Monzingen,SMON,6,Am Bahnhof 1,55569,Monzingen,Zweckverband Schienenpersonennahverkehr Rheinland-Pfalz Süd,RNN,nein,ja,7.6505,49.78302
Rheinland-Pfalz,Mainz,4281,Münster-Sarmsheim,SMSA,6,Nahestr. 1,55424,Münster,Zweckverband Schienenpersonennahverkehr Rheinland-Pfalz Süd,0,nein,ja,7.89772,49.94823
Rheinland-Pfalz,Mainz,4293,Nackenheim,FNAC,6,Mainzer Straße 71,55299,Nackenheim,Zweckverband Schienenpersonennahverkehr Rheinland-Pfalz Süd,VRN,nein,ja,8.33993,49.91847
Rheinland-Pfalz,Mainz,4364,Neubrücke (Nahe),SNBR,4,Saarstr. 19,55768,Hoppstädten-Weiersbach,Zweckverband Schienenpersonennahverkehr Rheinland-Pfalz Süd,RNN,nein,ja,7.17267,49.60619
Rheinland-Pfalz,Mainz,4474,Nieder Flörsheim-Dalsheim,FNFD,6,Bahnhofstr. 111,67592,Nieder Flörsheim,Zweckverband Schienenpersonennahverkehr Rheinland-Pfalz Süd,VRN,nein,ja,8.20606,49.65888
Rheinland-Pfalz,Mainz,4476,Nieder Olm,FNOL,6,Ludwig Eckes Allee 26,55268,Nieder Olm,Zweckverband Schienenpersonennahverkehr Rheinland-Pfalz Süd,0,nein,ja,8.20139,49.90319
Rheinland-Pfalz,Mainz,4499,Niederheimbach,FNDH,6,Rheinstr. 88,55413,Niederheimbach,Zweckverband Schienenpersonennahverkehr Rheinland-Pfalz Süd,0,nein,ja,7.80522,50.036
Rheinland-Pfalz,Mainz,4551,Nierstein,FNIR,5,Rheinallee 6,55283,Nierstein,Zweckverband Schienenpersonennahverkehr Rheinland-Pfalz Süd,0,nein,ja,8.34492,49.8711
Rheinland-Pfalz,Mainz,4563,Nohen,SNON,7,Hauptstr. 1,55767,Nohen,Zweckverband Schienenpersonennahverkehr Rheinland-Pfalz Süd,0,nein,ja,7.24407,49.63834
Rheinland-Pfalz,Mainz,4584,Norheim,SNOR,6,Niedernhäuserstr. 1,55585,Norheim,Zweckverband Schienenpersonennahverkehr Rheinland-Pfalz Süd,RNN,nein,ja,7.81429,49.81094
Rheinland-Pfalz,Mainz,7871,Ockenheim,FOCK,6,Am Bahnhof 1,55437,Ockenheim,Zweckverband Schienenpersonennahverkehr Rheinland-Pfalz Süd,RNN,nein,ja,7.96582,49.95003
Rheinland-Pfalz,Mainz,4772,Oppenheim,FOPP,5,Bahnhofstr. 21,55276,Oppenheim,Zweckverband Schienenpersonennahverkehr Rheinland-Pfalz Süd,VRN,nein,ja,8.35776,49.85754
Rheinland-Pfalz,Mainz,4808,Osthofen,FOHF,4,Bahnhofstr. 1,67574,Osthofen,Zweckverband Schienenpersonennahverkehr Rheinland-Pfalz Süd,VRN,nein,ja,8.32601,49.705
Rheinland-Pfalz,Mainz,4918,Pfeddersheim,FPD,6,Pfeffligheimerstr. 1,67551,Worms,Zweckverband Schienenpersonennahverkehr Rheinland-Pfalz Süd,VRN,nein,ja,8.27963,49.63477
Rheinland-Pfalz,Mainz,5522,Saulheim,FSLH,6,Alte Bahnhofstr.35,55291,Saulheim,Zweckverband Schienenpersonennahverkehr Rheinland-Pfalz Süd,0,nein,ja,8.15464,49.87479
Rheinland-Pfalz,Mainz,5932,Sprendlingen (Rheinhess),FSPR,6,Bahnhofstr. 26,55576,Sprendlingen ,Zweckverband Schienenpersonennahverkehr Rheinland-Pfalz Süd,0,nein,ja,7.97347,49.84233
Rheinland-Pfalz,Mainz,5973,Staudernheim,SSTH,5,Bahnhofstr. 1,55568,Staudernheim,Zweckverband Schienenpersonennahverkehr Rheinland-Pfalz Süd,RNN,nein,ja,7.69136,49.77959
Rheinland-Pfalz,Mainz,6249,Trechtingshausen,FTRE,6,Bahnhofstr. 10,55413,Trechtingshausen,Zweckverband Schienenpersonennahverkehr Rheinland-Pfalz Süd,RNN,nein,ja,7.85231,50.00897
